city,lat,lng,country,iso2,admin_name,capital,population,population_proper
Vienna,48.2083,16.3725,Austria,AT,Wien,primary,2223236.0,1973403.0
Graz,47.0708,15.4386,Austria,AT,Steiermark,admin,292630.0,292630.0
Linz,48.3058,14.2864,Austria,AT,Oberösterreich,admin,210165.0,210165.0
Lochau,47.5167,9.75,Austria,AT,Vorarlberg,,200000.0,5747.0
Salzburg,47.8,13.045,Austria,AT,Salzburg,admin,155021.0,155021.0
Innsbruck,47.2683,11.3933,Austria,AT,Tirol,admin,130585.0,130585.0
Klagenfurt,46.6167,14.3,Austria,AT,Kärnten,admin,101403.0,101403.0
Villach,46.6167,13.85,Austria,AT,Kärnten,minor,65127.0,65127.0
Wels,48.15,14.0167,Austria,AT,Oberösterreich,minor,61233.0,61233.0
Sankt Pölten,48.2,15.6167,Austria,AT,Niederösterreich,admin,55514.0,55514.0
Krems an der Donau,48.4167,15.6167,Austria,AT,Niederösterreich,minor,50000.0,25272.0
Dornbirn,47.4139,9.7444,Austria,AT,Vorarlberg,minor,48067.0,48067.0
Wiener Neustadt,47.8167,16.25,Austria,AT,Niederösterreich,minor,44461.0,44461.0
Steyr,48.0333,14.4167,Austria,AT,Oberösterreich,minor,38331.0,38331.0
Bregenz,47.505,9.7492,Austria,AT,Vorarlberg,admin,29620.0,29620.0
Leonding,48.2667,14.25,Austria,AT,Oberösterreich,,28698.0,28698.0
Klosterneuburg,48.3042,16.3167,Austria,AT,Niederösterreich,minor,27058.0,27058.0
Baden,48.0075,16.2344,Austria,AT,Niederösterreich,minor,26286.0,26286.0
Traun,48.2217,14.2397,Austria,AT,Oberösterreich,,24477.0,24477.0
Lustenau,47.4297,9.6597,Austria,AT,Vorarlberg,,23579.0,23579.0
Amstetten,48.1167,14.8667,Austria,AT,Niederösterreich,minor,23569.0,23569.0
Kapfenberg,47.4333,15.2833,Austria,AT,Steiermark,,22798.0,22798.0
Hallein,47.6831,13.0969,Austria,AT,Salzburg,minor,21150.0,21150.0
Mödling,48.0833,16.2667,Austria,AT,Niederösterreich,minor,20555.0,20555.0
Kufstein,47.5833,12.1667,Austria,AT,Tirol,minor,19126.0,19126.0
Traiskirchen,48.0167,16.3,Austria,AT,Niederösterreich,,18858.0,18858.0
Schwechat,48.1411,16.4786,Austria,AT,Niederösterreich,,18026.0,18026.0
Hohenems,47.3667,9.6667,Austria,AT,Vorarlberg,,16946.0,16946.0
Stockerau,48.3833,16.2167,Austria,AT,Niederösterreich,,16916.0,16916.0
Ansfelden,48.2083,14.2889,Austria,AT,Oberösterreich,,16194.0,16194.0
Telfs,47.2833,11.0667,Austria,AT,Tirol,,16046.0,16046.0
Bruck an der Mur,47.4167,15.2667,Austria,AT,Steiermark,minor,15837.0,15837.0
Spittal an der Drau,46.7833,13.4833,Austria,AT,Kärnten,minor,15413.0,15413.0
Perchtoldsdorf,48.1167,16.2667,Austria,AT,Niederösterreich,,15047.0,15047.0
Bludenz,47.1333,9.8167,Austria,AT,Vorarlberg,minor,14956.0,14956.0
Eisenstadt,47.85,16.5167,Austria,AT,Burgenland,admin,14476.0,14476.0
Hall in Tirol,47.2833,11.5,Austria,AT,Tirol,,13897.0,13897.0
Wörgl,47.4833,12.0667,Austria,AT,Tirol,,13811.0,13811.0
Schwaz,47.35,11.7,Austria,AT,Tirol,minor,13810.0,13810.0
Marchtrenk,48.1917,14.1106,Austria,AT,Oberösterreich,,13603.0,13603.0
Hard,47.4667,9.6667,Austria,AT,Vorarlberg,,13495.0,13495.0
Leibnitz,46.7831,15.545,Austria,AT,Steiermark,minor,13014.0,13014.0
Korneuburg,48.3453,16.3331,Austria,AT,Niederösterreich,minor,12986.0,12986.0
Neunkirchen,47.7333,16.0833,Austria,AT,Niederösterreich,minor,12879.0,12879.0
Knittelfeld,47.215,14.8294,Austria,AT,Steiermark,,12626.0,12626.0
Vöcklabruck,48.0086,13.6558,Austria,AT,Oberösterreich,minor,12299.0,12299.0
Enns,48.2167,14.475,Austria,AT,Oberösterreich,,11937.0,11937.0
Lienz,46.8297,12.7697,Austria,AT,Tirol,minor,11935.0,11935.0
Brunn am Gebirge,48.1,16.2833,Austria,AT,Niederösterreich,,11864.0,11864.0
Rankweil,47.2667,9.65,Austria,AT,Vorarlberg,,11855.0,11855.0
Bad Vöslau,47.9667,16.2167,Austria,AT,Niederösterreich,,11844.0,11844.0
Weiz,47.2169,15.6331,Austria,AT,Steiermark,minor,11627.0,11627.0
Götzis,47.3331,9.6333,Austria,AT,Vorarlberg,,11473.0,11473.0
Gänserndorf,48.3406,16.7175,Austria,AT,Niederösterreich,minor,11404.0,11404.0
Gerasdorf bei Wien,48.295,16.4675,Austria,AT,Niederösterreich,,11155.0,11155.0
Gleisdorf,47.1039,15.7083,Austria,AT,Steiermark,,10763.0,10763.0
Lauterach,47.4772,9.7314,Austria,AT,Vorarlberg,,10028.0,10028.0
Strasshof an der Nordbahn,48.3194,16.6475,Austria,AT,Niederösterreich,,10009.0,10009.0
Köflach,47.0667,15.0833,Austria,AT,Steiermark,,9888.0,9888.0
Laakirchen,47.9828,13.8242,Austria,AT,Oberösterreich,,9861.0,9861.0
Purkersdorf,48.2092,16.1792,Austria,AT,Niederösterreich,,9701.0,9701.0
Wiener Neudorf,48.0833,16.3167,Austria,AT,Niederösterreich,,9433.0,9433.0
Voitsberg,47.0333,15.15,Austria,AT,Steiermark,minor,9403.0,9403.0
Rum,47.2872,11.4581,Austria,AT,Tirol,,9337.0,9337.0
Guntramsdorf,48.05,16.3167,Austria,AT,Niederösterreich,,9179.0,9179.0
Attnang-Puchheim,48.0167,13.7197,Austria,AT,Oberösterreich,,8944.0,8944.0
Maria Enzersdorf,48.1,16.2833,Austria,AT,Niederösterreich,,8829.0,8829.0
Deutsch-Wagram,48.3,16.5667,Austria,AT,Niederösterreich,,8651.0,8651.0
Wolfurt,47.4731,9.7539,Austria,AT,Vorarlberg,,8429.0,8429.0
Perg,48.2503,14.6336,Austria,AT,Oberösterreich,minor,8388.0,8388.0
Langenzersdorf,48.3,16.35,Austria,AT,Niederösterreich,,8137.0,8137.0
Höchst,47.4544,9.6408,Austria,AT,Vorarlberg,,7995.0,7995.0
Freistadt,48.5115,14.5052,Austria,AT,Oberösterreich,minor,7909.0,7909.0
Bruck an der Leitha,48.0167,16.7667,Austria,AT,Niederösterreich,minor,7887.0,7887.0
Landeck,47.1333,10.5667,Austria,AT,Tirol,minor,7725.0,7725.0
Pasching,48.2589,14.2028,Austria,AT,Oberösterreich,,7552.0,7552.0
Kottingbrunn,47.9519,16.2292,Austria,AT,Niederösterreich,,7417.0,7417.0
Seiersberg,47.01,15.3989,Austria,AT,Steiermark,,7351.0,7351.0
Grödig,47.7,13.0167,Austria,AT,Salzburg,,7262.0,7262.0
Zeltweg,47.1906,14.7511,Austria,AT,Steiermark,,7212.0,7212.0
Hafendorf,47.4556,15.3194,Austria,AT,Steiermark,,7177.0,7177.0
Jenbach,47.3933,11.7767,Austria,AT,Tirol,,7120.0,7120.0
Vösendorf,48.1167,16.3333,Austria,AT,Niederösterreich,,6990.0,6990.0
Kalsdorf bei Graz,46.9661,15.4817,Austria,AT,Steiermark,,6954.0,6954.0
Völs,47.25,11.3333,Austria,AT,Tirol,,6938.0,6938.0
Hartberg,47.2806,15.97,Austria,AT,Steiermark,minor,6650.0,6650.0
Altach,47.35,9.65,Austria,AT,Vorarlberg,,6624.0,6624.0
Feldkirchen bei Graz,47.0125,15.4425,Austria,AT,Steiermark,,6622.0,6622.0
Asten,48.2167,14.4167,Austria,AT,Oberösterreich,,6613.0,6613.0
Mattighofen,48.1067,13.1494,Austria,AT,Oberösterreich,,6524.0,6524.0
Gallneukirchen,48.3532,14.4163,Austria,AT,Oberösterreich,,6492.0,6492.0
Hörbranz,47.55,9.75,Austria,AT,Vorarlberg,,6346.0,6346.0
Neuhofen an der Krems,48.1336,14.2333,Austria,AT,Oberösterreich,,6269.0,6269.0
Hörsching,48.2267,14.1794,Austria,AT,Oberösterreich,,6062.0,6062.0
Gloggnitz,47.6759,15.9366,Austria,AT,Niederösterreich,,5916.0,5916.0
Wagna,46.7681,15.5583,Austria,AT,Steiermark,,5859.0,5859.0
Kirchbichl,47.5167,12.0667,Austria,AT,Tirol,,5855.0,5855.0
Oberndorf bei Salzburg,47.9417,12.9417,Austria,AT,Salzburg,,5815.0,5815.0
Timelkam,48.0014,13.6125,Austria,AT,Oberösterreich,,5708.0,5708.0
Thalheim bei Wels,48.1514,14.0383,Austria,AT,Oberösterreich,,5482.0,5482.0
Bergheim,47.8403,13.0222,Austria,AT,Salzburg,,5388.0,5388.0
Wildon,46.8869,15.5142,Austria,AT,Steiermark,,5367.0,5367.0
Schwertberg,48.2717,14.5833,Austria,AT,Oberösterreich,,5365.0,5365.0
Bad Gleichenberg,46.8667,15.9,Austria,AT,Steiermark,,5314.0,5314.0
Schärding,48.4569,13.4317,Austria,AT,Oberösterreich,minor,5253.0,5253.0
Lieboch,46.9742,15.3375,Austria,AT,Steiermark,,5096.0,5096.0
Leopoldsdorf,48.1167,16.3833,Austria,AT,Niederösterreich,,5078.0,5078.0
Stadl-Paura,48.0839,13.8639,Austria,AT,Oberösterreich,,5053.0,5053.0
Lenzing,47.9761,13.5956,Austria,AT,Oberösterreich,,5043.0,5043.0
Bad Hall,48.0333,14.2,Austria,AT,Oberösterreich,,5043.0,5043.0
Sollenau,47.9,16.25,Austria,AT,Niederösterreich,,5038.0,5038.0
Grieskirchen,48.2356,13.8264,Austria,AT,Oberösterreich,minor,5002.0,5002.0
Birkfeld,47.35,15.6667,Austria,AT,Steiermark,,4992.0,4992.0
Mauthausen,48.2419,14.5169,Austria,AT,Oberösterreich,,4936.0,4936.0
Leobersdorf,47.9167,16.2167,Austria,AT,Niederösterreich,,4915.0,4915.0
Bürmoos,47.9833,12.9333,Austria,AT,Salzburg,,4899.0,4899.0
Weißkirchen in Steiermark,47.1539,14.7386,Austria,AT,Steiermark,,4853.0,4853.0
Althofen,46.8667,14.4667,Austria,AT,Kärnten,,4759.0,4759.0
Bisamberg,48.3333,16.3667,Austria,AT,Niederösterreich,,4729.0,4729.0
Ottensheim,48.3333,14.1769,Austria,AT,Oberösterreich,,4721.0,4721.0
Oberwaltersdorf,47.9833,16.3333,Austria,AT,Niederösterreich,,4618.0,4618.0
Eichgraben,48.1728,15.9833,Austria,AT,Niederösterreich,,4614.0,4614.0
Koblach,47.3333,9.6,Austria,AT,Vorarlberg,,4577.0,4577.0
Neudörfl,47.8,16.3,Austria,AT,Burgenland,,4564.0,4564.0
Mils bei Solbad Hall,47.2864,11.5267,Austria,AT,Tirol,,4549.0,4549.0
Kirchdorf,47.9067,14.0,Austria,AT,Oberösterreich,minor,4502.0,4502.0
Puchenau,48.3108,14.2414,Austria,AT,Oberösterreich,,4445.0,4445.0
Wies,46.7203,15.2719,Austria,AT,Steiermark,,4438.0,4438.0
Sankt Georgen im Attergau,47.9333,13.4922,Austria,AT,Oberösterreich,,4375.0,4375.0
Oberalm,47.7,13.1,Austria,AT,Salzburg,,4325.0,4325.0
Tribuswinkel,48.0,16.2667,Austria,AT,Niederösterreich,,4295.0,4295.0
Felixdorf,47.8833,16.2333,Austria,AT,Niederösterreich,,4292.0,4292.0
Schwanenstadt,48.0553,13.7758,Austria,AT,Oberösterreich,,4264.0,4264.0
Fügen,47.35,11.8333,Austria,AT,Tirol,,4227.0,4227.0
Anif,47.75,13.0667,Austria,AT,Salzburg,,4195.0,4195.0
Hallwang,47.85,13.0667,Austria,AT,Salzburg,,4189.0,4189.0
Bad Schallerbach,48.2167,13.9167,Austria,AT,Oberösterreich,,4169.0,4169.0
Götzens,47.2361,11.3114,Austria,AT,Tirol,,4138.0,4138.0
Sankt Georgen an der Gusen,48.2717,14.4483,Austria,AT,Oberösterreich,,4119.0,4119.0
Eferding,48.3167,14.0333,Austria,AT,Oberösterreich,minor,4100.0,4100.0
Mäder,47.35,9.6167,Austria,AT,Vorarlberg,,4031.0,4031.0
Gössendorf,46.9833,15.4833,Austria,AT,Steiermark,,3981.0,3981.0
Schwarzach,47.4167,9.75,Austria,AT,Vorarlberg,,3949.0,3949.0
Gumpoldskirchen,48.05,16.2833,Austria,AT,Niederösterreich,,3899.0,3899.0
Fußach,47.4667,9.6667,Austria,AT,Vorarlberg,,3871.0,3871.0
Pinsdorf,47.9303,13.7669,Austria,AT,Oberösterreich,,3849.0,3849.0
Loosdorf,48.2,15.4,Austria,AT,Niederösterreich,,3794.0,3794.0
Gratwein,47.1294,15.3178,Austria,AT,Steiermark,,3635.0,3635.0
Pfaffstätten,48.0167,16.2667,Austria,AT,Niederösterreich,,3551.0,3551.0
Schwarzach im Pongau,47.3222,13.15,Austria,AT,Salzburg,,3515.0,3515.0
Theresienfeld,47.85,16.25,Austria,AT,Niederösterreich,,3485.0,3485.0
Ludesch,47.2,9.7667,Austria,AT,Vorarlberg,,3437.0,3437.0
Lambach,48.0944,13.8775,Austria,AT,Oberösterreich,,3435.0,3435.0
Neufeld an der Leitha,47.8667,16.3833,Austria,AT,Burgenland,,3418.0,3418.0
Göfis,47.2331,9.6331,Austria,AT,Vorarlberg,,3312.0,3312.0
Fernitz,46.9742,15.4983,Austria,AT,Steiermark,,3300.0,3300.0
Hausmannstätten,46.9908,15.5086,Austria,AT,Steiermark,,3288.0,3288.0
Pirka,47.0017,15.3911,Austria,AT,Steiermark,,3288.0,3288.0
Kierling,48.3083,16.2742,Austria,AT,Niederösterreich,,3178.0,3178.0
Sankt Florian am Inn,48.4333,13.6,Austria,AT,Oberösterreich,,3150.0,3150.0
Klaus,47.3086,9.6467,Austria,AT,Vorarlberg,,3118.0,3118.0
Brixlegg,47.4292,11.8775,Austria,AT,Tirol,,3044.0,3044.0
Ennsdorf,48.2,14.4333,Austria,AT,Niederösterreich,,3031.0,3031.0
Kematen in Tirol,47.2542,11.2722,Austria,AT,Tirol,,3014.0,3014.0
Biedermannsdorf,48.0833,16.3333,Austria,AT,Niederösterreich,,2988.0,2988.0
Elixhausen,47.8667,13.0667,Austria,AT,Salzburg,,2963.0,2963.0
Niederndorf,47.65,12.2156,Austria,AT,Tirol,,2820.0,2820.0
Gallspach,48.2067,13.8144,Austria,AT,Oberösterreich,,2772.0,2772.0
Aldrans,47.25,11.4333,Austria,AT,Tirol,,2761.0,2761.0
Sankt Marein im Mürztal,47.4744,15.3711,Austria,AT,Steiermark,,2713.0,2713.0
Kaindorf an der Sulm,46.8,15.5333,Austria,AT,Steiermark,,2552.0,2552.0
Rohrbach,48.5667,13.9833,Austria,AT,Oberösterreich,minor,2552.0,2552.0
Sulz,47.2667,9.65,Austria,AT,Vorarlberg,,2527.0,2527.0
Raaba,47.0278,15.4967,Austria,AT,Steiermark,,2427.0,2427.0
Schlins,47.2,9.6833,Austria,AT,Vorarlberg,,2404.0,2404.0
Windischgarsten,47.7211,14.3308,Austria,AT,Oberösterreich,,2392.0,2392.0
Bludesch,47.2,9.7333,Austria,AT,Vorarlberg,,2370.0,2370.0
Werndorf,46.9211,15.4811,Austria,AT,Steiermark,,2365.0,2365.0
Gießhübl,47.8333,16.0833,Austria,AT,Niederösterreich,,2335.0,2335.0
Meiningen,47.3,9.5833,Austria,AT,Vorarlberg,,2245.0,2245.0
Sistrans,47.2381,11.4467,Austria,AT,Tirol,,2244.0,2244.0
Thüringen,47.2,9.7667,Austria,AT,Vorarlberg,,2222.0,2222.0
Aschach an der Donau,48.3667,14.0167,Austria,AT,Oberösterreich,,2201.0,2201.0
Brussels,50.8467,4.3525,Belgium,BE,Brussels-Capital Region,primary,1235192.0,1235192.0
Antwerp,51.2178,4.4003,Belgium,BE,Flanders,minor,536079.0,536079.0
Gent,51.0536,3.7253,Belgium,BE,Flanders,minor,265086.0,265086.0
Charleroi,50.4,4.4333,Belgium,BE,Wallonia,minor,201816.0,201816.0
Liège,50.6397,5.5706,Belgium,BE,Wallonia,minor,195278.0,195278.0
Schaarbeek,50.8675,4.3736,Belgium,BE,Brussels-Capital Region,,132799.0,132799.0
Anderlecht,50.8333,4.3333,Belgium,BE,Brussels-Capital Region,,120887.0,120887.0
Bruges,51.2089,3.2242,Belgium,BE,Flanders,minor,118509.0,118509.0
Namur,50.4667,4.8667,Belgium,BE,Wallonia,admin,110939.0,110939.0
Moortebeek,50.8547,4.3386,Belgium,BE,Flanders,,97979.0,97979.0
Aalst,50.9383,4.0392,Belgium,BE,Flanders,minor,88854.0,88854.0
Mechelen,51.0278,4.4806,Belgium,BE,Flanders,minor,86921.0,86921.0
Deurne,51.2247,4.4625,Belgium,BE,Flanders,,82270.0,82270.0
La Louvière,50.4667,4.1833,Belgium,BE,Wallonia,,80986.0,80986.0
Sint-Niklaas,51.1667,4.1333,Belgium,BE,Flanders,minor,80167.0,80167.0
Kortrijk,50.8275,3.2658,Belgium,BE,Flanders,minor,77741.0,77741.0
Ostend,51.2258,2.9194,Belgium,BE,Flanders,minor,71557.0,71557.0
Roeselare,50.9333,3.1167,Belgium,BE,Flanders,minor,64495.0,64495.0
Seraing,50.5833,5.5,Belgium,BE,Wallonia,,64270.0,64270.0
Laeken,50.8778,4.3558,Belgium,BE,Brussels-Capital Region,,60295.0,60295.0
Mouscron,50.7333,3.2167,Belgium,BE,Wallonia,minor,58234.0,58234.0
Forest,50.8131,4.3247,Belgium,BE,Brussels-Capital Region,,56581.0,56581.0
Verviers,50.5833,5.85,Belgium,BE,Wallonia,minor,55198.0,55198.0
Jette,50.8667,4.3333,Belgium,BE,Brussels-Capital Region,,52728.0,52728.0
Etterbeek,50.8333,4.3833,Belgium,BE,Brussels-Capital Region,,48473.0,48473.0
Borgerhout,51.2117,4.4407,Belgium,BE,Flanders,,45769.0,45769.0
Merksem,51.2428,4.4414,Belgium,BE,Flanders,,44808.0,44808.0
Vilvoorde,50.9333,4.4167,Belgium,BE,Flanders,minor,44015.0,44015.0
Berchem,51.1833,4.4167,Belgium,BE,Flanders,,43180.0,43180.0
Evere,50.8667,4.4,Belgium,BE,Brussels-Capital Region,,42656.0,42656.0
Hoboken,51.1667,4.3667,Belgium,BE,Flanders,,41220.0,41220.0
Herstal,50.6667,5.6333,Belgium,BE,Wallonia,,39958.0,39958.0
Wilrijk,51.1667,4.3833,Belgium,BE,Flanders,,38319.0,38319.0
Brasschaat,51.3,4.5,Belgium,BE,Flanders,,38223.0,38223.0
Châtelet,50.4,4.5167,Belgium,BE,Wallonia,,36101.0,36101.0
Zaventem,50.8667,4.4667,Belgium,BE,Flanders,,35184.0,35184.0
Schoten,51.25,4.5,Belgium,BE,Flanders,,34462.0,34462.0
Menen,50.8,3.1167,Belgium,BE,Flanders,,33982.0,33982.0
Sint-Amandsberg,51.0539,3.7492,Belgium,BE,Flanders,,32151.0,32151.0
Kessel-Lo,50.8853,4.7358,Belgium,BE,Flanders,,30317.0,30317.0
Waterloo,50.7175,4.3979,Belgium,BE,Wallonia,,30174.0,30174.0
Izegem,50.9167,3.2,Belgium,BE,Flanders,,28845.0,28845.0
Ans,50.6667,5.5167,Belgium,BE,Wallonia,,28238.0,28238.0
Harelbeke,50.85,3.3,Belgium,BE,Flanders,,27886.0,27886.0
Sint-Joost-ten-Node,50.85,4.3833,Belgium,BE,Brussels-Capital Region,,27497.0,27497.0
Willebroek,51.0667,4.3667,Belgium,BE,Flanders,,26223.0,26223.0
Mortsel,51.1667,4.4667,Belgium,BE,Flanders,,26157.0,26157.0
Ganshoren,50.8667,4.3167,Belgium,BE,Brussels-Capital Region,,25234.0,25234.0
Saint-Nicolas,50.6333,5.5333,Belgium,BE,Wallonia,,24251.0,24251.0
Heverlee,50.86,4.6897,Belgium,BE,Flanders,,23555.0,23555.0
Manage,50.5,4.2333,Belgium,BE,Wallonia,,23122.0,23122.0
Marcinelle,50.4,4.4486,Belgium,BE,Wallonia,,22877.0,22877.0
Ekeren,51.2833,4.4167,Belgium,BE,Flanders,,22874.0,22874.0
Sofia,42.7,23.33,Bulgaria,BG,Sofia-Grad,primary,1547779.0,1383435.0
Varna,43.2167,27.9167,Bulgaria,BG,Varna,admin,348594.0,348594.0
Plovdiv,42.15,24.75,Bulgaria,BG,Plovdiv,admin,346893.0,346893.0
Burgas,42.503,27.4702,Bulgaria,BG,Burgas,admin,210813.0,210813.0
Ruse,43.8231,25.9539,Bulgaria,BG,Ruse,admin,143325.0,143325.0
Stara Zagora,42.4256,25.6344,Bulgaria,BG,Stara Zagora,admin,142746.0,136144.0
Pleven,43.4078,24.6203,Bulgaria,BG,Pleven,admin,119596.0,119596.0
Sliven,42.6833,26.3333,Bulgaria,BG,Sliven,admin,115241.0,89355.0
Pernik,42.6,23.0333,Bulgaria,BG,Pernik,admin,97181.0,74066.0
Pazardzhik,42.2,24.3333,Bulgaria,BG,Pazardzhik,admin,90309.0,74950.0
Dobrich,43.5667,27.8333,Bulgaria,BG,Dobrich,admin,89701.0,89701.0
Shumen,43.2833,26.9333,Bulgaria,BG,Shumen,admin,85410.0,82193.0
Haskovo,41.9333,25.5667,Bulgaria,BG,Haskovo,admin,83682.0,71229.0
Veliko Tarnovo,43.0778,25.6167,Bulgaria,BG,Veliko Tarnovo,admin,76834.0,66797.0
Blagoevgrad,42.0119,23.0897,Bulgaria,BG,Blagoevgrad,admin,74066.0,73422.0
Yambol,42.4833,26.5,Bulgaria,BG,Yambol,admin,70588.0,70588.0
Kazanlak,42.6167,25.4,Bulgaria,BG,Stara Zagora,,66169.0,48989.0
Asenovgrad,42.0167,24.8667,Bulgaria,BG,Plovdiv,,65962.0,58986.0
Kyustendil,42.2833,22.6833,Bulgaria,BG,Kyustendil,admin,60681.0,44515.0
Vratsa,43.2,23.55,Bulgaria,BG,Vratsa,admin,60361.0,56852.0
Gabrovo,42.8667,25.3333,Bulgaria,BG,Gabrovo,admin,54608.0,52477.0
Targovishte,43.25,26.5833,Bulgaria,BG,Targovishte,admin,53041.0,39998.0
Kardzhali,41.65,25.3667,Bulgaria,BG,Kardzhali,admin,51841.0,51841.0
Vidin,44.0,22.8667,Bulgaria,BG,Vidin,admin,46269.0,45583.0
Razgrad,43.5333,26.5167,Bulgaria,BG,Razgrad,admin,44894.0,32917.0
Svishtov,43.6167,25.35,Bulgaria,BG,Veliko Tarnovo,minor,44359.0,23325.0
Silistra,44.1172,27.2606,Bulgaria,BG,Silistra,admin,43265.0,33817.0
Dupnitsa,42.2645,23.1164,Bulgaria,BG,Kyustendil,,42470.0,34339.0
Montana,43.4075,23.2217,Bulgaria,BG,Montana,admin,40044.0,40044.0
Lovech,43.1347,24.7172,Bulgaria,BG,Lovech,admin,37448.0,32832.0
Dimitrovgrad,42.05,25.6,Bulgaria,BG,Haskovo,,34990.0,34990.0
Smolyan,41.5833,24.7,Bulgaria,BG,Smolyan,admin,34465.0,28268.0
Gorna Oryahovitsa,43.1333,25.7,Bulgaria,BG,Veliko Tarnovo,,30169.0,30169.0
Petrich,41.3953,23.2069,Bulgaria,BG,Blagoevgrad,,29630.0,29630.0
Gotse Delchev,41.5667,23.7333,Bulgaria,BG,Blagoevgrad,,29585.0,20145.0
Aytos,42.7,27.25,Bulgaria,BG,Burgas,,27326.0,22252.0
Rakovski,42.3,24.9667,Bulgaria,BG,Plovdiv,,25326.0,15694.0
Omurtag,43.1,26.417,Bulgaria,BG,Targovishte,,24876.0,9139.0
Velingrad,42.0167,24.0,Bulgaria,BG,Pazardzhik,minor,24154.0,24154.0
Isperih,43.7167,26.8333,Bulgaria,BG,Razgrad,,22556.0,8523.0
Lom,43.8256,23.2375,Bulgaria,BG,Montana,minor,21892.0,21892.0
Karlovo,42.6436,24.8072,Bulgaria,BG,Plovdiv,,21865.0,21865.0
Panagyurishte,42.5,24.1833,Bulgaria,BG,Pazardzhik,minor,21430.0,16424.0
Botevgrad,42.9083,23.7919,Bulgaria,BG,Sofia,,20602.0,20602.0
Peshtera,42.0333,24.3,Bulgaria,BG,Pazardzhik,minor,19877.0,19877.0
Veliki Preslav,43.1667,26.817,Bulgaria,BG,Shumen,,14960.0,8232.0
Pomorie,42.5683,27.6167,Bulgaria,BG,Burgas,minor,14409.0,14409.0
Nesebar,42.65,27.7333,Bulgaria,BG,Burgas,minor,14146.0,14146.0
Lyaskovets,43.1,25.7167,Bulgaria,BG,Veliko Tarnovo,,13735.0,7776.0
Novi Pazar,43.35,27.2,Bulgaria,BG,Shumen,,12710.0,12710.0
Provadia,43.1833,27.4333,Bulgaria,BG,Varna,,12419.0,12419.0
Razlog,41.8833,23.4667,Bulgaria,BG,Blagoevgrad,,12340.0,12340.0
Zlatograd,41.3833,25.1,Bulgaria,BG,Smolyan,minor,12087.0,6880.0
Kozloduy,43.7833,23.7333,Bulgaria,BG,Vratsa,minor,11940.0,11940.0
Kostinbrod,42.8167,23.2167,Bulgaria,BG,Sofia,,11411.0,11411.0
Bankya,42.7,23.1333,Bulgaria,BG,Sofia-Grad,,11358.0,11358.0
Stamboliyski,42.1333,24.5333,Bulgaria,BG,Plovdiv,,11282.0,11282.0
Etropole,42.8333,24.0,Bulgaria,BG,Sofia,,10316.0,10316.0
Momchilgrad,41.5333,25.4167,Bulgaria,BG,Kardzhali,,9235.0,9235.0
Devnya,43.2167,27.5667,Bulgaria,BG,Varna,,8905.0,8905.0
Rakitovo,41.9833,24.0833,Bulgaria,BG,Pazardzhik,minor,8638.0,8638.0
Sopot,42.65,24.75,Bulgaria,BG,Plovdiv,,8595.0,8595.0
Septemvri,42.2167,24.1,Bulgaria,BG,Pazardzhik,minor,8167.0,8167.0
Krichim,42.05,24.4667,Bulgaria,BG,Plovdiv,,8129.0,8129.0
Byala,43.45,25.7333,Bulgaria,BG,Ruse,,8087.0,8087.0
Aksakovo,43.25,27.8167,Bulgaria,BG,Varna,,8004.0,8004.0
Beloslav,43.1833,27.7,Bulgaria,BG,Varna,minor,7620.0,7620.0
Elin Pelin,42.6667,23.6,Bulgaria,BG,Sofia,,7097.0,7097.0
Slivnitsa,42.85,23.0333,Bulgaria,BG,Sofia,minor,7063.0,7063.0
Madan,41.5,24.95,Bulgaria,BG,Smolyan,minor,6597.0,6597.0
Aydemir,44.1,27.1667,Bulgaria,BG,Silistra,,6177.0,6177.0
Devin,41.7333,24.4,Bulgaria,BG,Smolyan,minor,6079.0,6079.0
Lozen,42.6,23.4831,Bulgaria,BG,Sofia-Grad,,6014.0,6014.0
Varshets,43.183,23.283,Bulgaria,BG,Montana,minor,5742.0,5742.0
Saedinenie,42.2667,24.55,Bulgaria,BG,Plovdiv,,5621.0,5621.0
Bistritsa,42.5861,23.36,Bulgaria,BG,Sofia-Grad,,5237.0,5237.0
Bozhurishte,42.7625,23.1997,Bulgaria,BG,Sofia,,5225.0,5225.0
Suvorovo,43.3333,27.6,Bulgaria,BG,Varna,,5049.0,5049.0
Perushtitsa,42.05,24.55,Bulgaria,BG,Plovdiv,,5018.0,5018.0
Dolna Banya,42.2833,23.7667,Bulgaria,BG,Sofia,,4687.0,4687.0
Vetovo,43.7,26.2667,Bulgaria,BG,Ruse,,4540.0,4540.0
Kazichene,42.6667,23.4667,Bulgaria,BG,Sofia-Grad,,4503.0,4503.0
Ignatievo,43.25,27.7667,Bulgaria,BG,Varna,,4358.0,4358.0
Kostandovo,42.0,24.0167,Bulgaria,BG,Pazardzhik,,4336.0,4336.0
Bukovlak,43.4453,24.6133,Bulgaria,BG,Pleven,,4335.0,4335.0
Koynare,43.3572,24.1444,Bulgaria,BG,Pleven,,4231.0,4231.0
Slavyanovo,43.4667,24.8667,Bulgaria,BG,Pleven,,4105.0,4105.0
Trud,42.2319,24.7281,Bulgaria,BG,Plovdiv,,4067.0,4067.0
Kalipetrovo,44.0861,27.2505,Bulgaria,BG,Silistra,,4043.0,4043.0
Sapareva Banya,42.2833,23.2667,Bulgaria,BG,Kyustendil,,3950.0,3950.0
Malo Konare,42.2,24.433,Bulgaria,BG,Pazardzhik,,3856.0,3856.0
Varbitsa,42.995,26.6731,Bulgaria,BG,Shumen,,3837.0,3837.0
Marten,43.9167,26.0833,Bulgaria,BG,Ruse,,3650.0,3650.0
Debelets,43.0436,25.6208,Bulgaria,BG,Veliko Tarnovo,,3637.0,3637.0
Vladaya,42.6333,23.2,Bulgaria,BG,Sofia-Grad,,3621.0,3621.0
Parvenets,42.0744,24.6631,Bulgaria,BG,Plovdiv,,3584.0,3584.0
Sarnitsa,41.7333,24.0333,Bulgaria,BG,Pazardzhik,minor,3511.0,3511.0
Sveti Vlas,42.7167,27.7667,Bulgaria,BG,Burgas,,3508.0,3508.0
Rudozem,41.4833,24.85,Bulgaria,BG,Smolyan,minor,3466.0,3466.0
Topolchane,42.6511,26.4275,Bulgaria,BG,Sliven,,3354.0,3354.0
Brestovitsa,42.0667,24.5833,Bulgaria,BG,Plovdiv,,3318.0,3318.0
Aleko Konstantinovo,42.1452,24.289,Bulgaria,BG,Pazardzhik,,3265.0,3265.0
Gulyantsi,43.6333,24.7,Bulgaria,BG,Pleven,minor,3179.0,3179.0
Nikolaevo,42.6333,25.8,Bulgaria,BG,Stara Zagora,,3147.0,3147.0
Rogosh,42.1818,24.8646,Bulgaria,BG,Plovdiv,,3126.0,3126.0
Banya,42.55,24.8333,Bulgaria,BG,Plovdiv,,3083.0,3083.0
Kran,42.6669,25.3831,Bulgaria,BG,Stara Zagora,,3074.0,3074.0
Topoli,43.2183,27.8214,Bulgaria,BG,Varna,,3046.0,3046.0
Pancharevo,42.5708,23.4397,Bulgaria,BG,Sofia-Grad,,3042.0,3042.0
Kamenar,43.248,27.908,Bulgaria,BG,Varna,,3040.0,3040.0
Ivaylo,42.2167,24.3333,Bulgaria,BG,Pazardzhik,,3014.0,3014.0
Gurkovo,42.6572,25.7961,Bulgaria,BG,Stara Zagora,,3011.0,3011.0
Sotirya,42.6922,26.4042,Bulgaria,BG,Sliven,,2942.0,2942.0
Ruen,42.8,27.2833,Bulgaria,BG,Burgas,,2911.0,2911.0
Kableshkovo,42.65,27.5667,Bulgaria,BG,Burgas,,2894.0,2894.0
Vetren,42.2667,24.05,Bulgaria,BG,Pazardzhik,,2888.0,2888.0
Dolna Oryahovitsa,43.1564,25.7392,Bulgaria,BG,Veliko Tarnovo,,2696.0,2696.0
Voluyak,42.7727,23.2429,Bulgaria,BG,Sofia-Grad,,2659.0,2659.0
German,42.6167,23.4167,Bulgaria,BG,Sofia-Grad,,2649.0,2649.0
Buhovo,42.7667,23.5667,Bulgaria,BG,Sofia-Grad,,2644.0,2644.0
Kalofer,42.6122,24.9731,Bulgaria,BG,Plovdiv,,2642.0,2642.0
Kalekovets,42.233,24.817,Bulgaria,BG,Plovdiv,,2641.0,2641.0
Nikolovo,43.8573,26.0929,Bulgaria,BG,Ruse,,2615.0,2615.0
Ravda,42.65,27.6833,Bulgaria,BG,Burgas,,2615.0,2615.0
Glozhene,43.6916,23.812,Bulgaria,BG,Vratsa,,2612.0,2612.0
Novo Selo,42.105,24.483,Bulgaria,BG,Plovdiv,,2578.0,2578.0
Kurtovo Konare,42.093,24.4998,Bulgaria,BG,Plovdiv,,2543.0,2543.0
Skutare,42.1833,24.8333,Bulgaria,BG,Plovdiv,,2524.0,2524.0
Ablanitsa,41.5378,23.9347,Bulgaria,BG,Blagoevgrad,,2511.0,2511.0
Sadovo,42.133,24.933,Bulgaria,BG,Plovdiv,,2494.0,2494.0
Chepintsi,42.7578,23.4256,Bulgaria,BG,Sofia-Grad,,2437.0,2437.0
Parvomaytsi,43.153,25.6521,Bulgaria,BG,Veliko Tarnovo,,2419.0,2419.0
Draganovo,43.2209,25.7467,Bulgaria,BG,Veliko Tarnovo,,2405.0,2405.0
Ognyanovo,42.1333,24.4,Bulgaria,BG,Pazardzhik,,2368.0,2368.0
Valkosel,41.5333,23.9833,Bulgaria,BG,Blagoevgrad,,2350.0,2350.0
Rakovski,43.6,26.4667,Bulgaria,BG,Razgrad,,2332.0,2332.0
Kilifarevo,42.9833,25.6333,Bulgaria,BG,Veliko Tarnovo,,2323.0,2323.0
Glavinitsa,42.1574,24.3088,Bulgaria,BG,Pazardzhik,,2243.0,2243.0
Svetovrachane,42.7819,23.3838,Bulgaria,BG,Sofia-Grad,,2205.0,2205.0
Bregovo,44.15,22.65,Bulgaria,BG,Vidin,minor,2180.0,2180.0
Aheloy,42.6489,27.6481,Bulgaria,BG,Burgas,,2162.0,2162.0
Krushare,42.55,26.3667,Bulgaria,BG,Sliven,,2140.0,2140.0
Gradina,42.1472,25.208,Bulgaria,BG,Plovdiv,,2106.0,2106.0
Startsevo,41.4167,25.0667,Bulgaria,BG,Smolyan,,2094.0,2094.0
Obzor,42.8167,27.8833,Bulgaria,BG,Burgas,,2094.0,2094.0
Batanovtsi,42.6,22.95,Bulgaria,BG,Pernik,,2084.0,2084.0
Tsaratsovo,42.2,24.6833,Bulgaria,BG,Plovdiv,,2038.0,2038.0
Voyvodinovo,42.2,24.8,Bulgaria,BG,Plovdiv,,2000.0,2000.0
Borovo,43.5,25.8,Bulgaria,BG,Ruse,minor,1992.0,1992.0
Balgarovo,42.6167,27.3,Bulgaria,BG,Burgas,,1921.0,1921.0
Petarch,42.8333,23.1333,Bulgaria,BG,Sofia,,1914.0,1914.0
Chernogorovo,42.272,24.4011,Bulgaria,BG,Pazardzhik,,1913.0,1913.0
Kokalyane,42.5786,23.415,Bulgaria,BG,Sofia-Grad,,1854.0,1854.0
Oreshak,42.8821,24.7705,Bulgaria,BG,Lovech,,1847.0,1847.0
Dragichevo,42.6043,23.1391,Bulgaria,BG,Sofia-Grad,,1837.0,1837.0
Ostrovo,43.6881,26.6074,Bulgaria,BG,Razgrad,,1809.0,1809.0
Mokrishte,42.1892,24.3325,Bulgaria,BG,Pazardzhik,,1802.0,1802.0
Yahinovo,42.2833,23.15,Bulgaria,BG,Kyustendil,,1798.0,1798.0
Kostievo,42.179,24.6235,Bulgaria,BG,Plovdiv,,1789.0,1789.0
Kraynitsi,42.3167,23.2,Bulgaria,BG,Kyustendil,,1777.0,1777.0
Aleksandrovo,43.25,24.95,Bulgaria,BG,Lovech,,1774.0,1774.0
Sinitovo,42.15,24.3667,Bulgaria,BG,Pazardzhik,,1768.0,1768.0
Ezerovo,43.2,27.7667,Bulgaria,BG,Varna,,1760.0,1760.0
Resen,43.2,25.55,Bulgaria,BG,Veliko Tarnovo,,1751.0,1751.0
Graf Ignatievo,42.2833,24.75,Bulgaria,BG,Plovdiv,,1728.0,1728.0
Seliminovo,42.6469,26.1542,Bulgaria,BG,Sliven,,1722.0,1722.0
Uzundzhovo,41.9667,25.65,Bulgaria,BG,Haskovo,,1720.0,1720.0
Busmantsi,42.6833,23.4333,Bulgaria,BG,Sofia-Grad,,1669.0,1669.0
Lyuben Karavelovo,43.35,27.7833,Bulgaria,BG,Varna,,1650.0,1650.0
Lesnovo,42.6333,23.6333,Bulgaria,BG,Sofia,,1648.0,1648.0
Byal Izvor,41.5461,25.0738,Bulgaria,BG,Kardzhali,,1645.0,1645.0
Merichleri,42.1333,25.5,Bulgaria,BG,Haskovo,,1642.0,1642.0
Polikrayshte,43.183,25.617,Bulgaria,BG,Veliko Tarnovo,,1639.0,1639.0
Divotino,42.6553,23.0494,Bulgaria,BG,Pernik,,1636.0,1636.0
Ravnets,42.5169,27.25,Bulgaria,BG,Burgas,,1610.0,1610.0
Kermen,42.504,26.256,Bulgaria,BG,Sliven,,1593.0,1593.0
Kukorevo,42.4477,26.5331,Bulgaria,BG,Yambol,,1587.0,1587.0
Samoranovo,42.25,23.1667,Bulgaria,BG,Kyustendil,,1580.0,1580.0
Stozher,43.45,27.8167,Bulgaria,BG,Dobrich,,1540.0,1540.0
Zheleznitsa,42.5333,23.3667,Bulgaria,BG,Sofia-Grad,,1526.0,1526.0
Slokoshtitsa,42.2667,22.7072,Bulgaria,BG,Kyustendil,,1494.0,1494.0
Negovan,42.7667,23.4167,Bulgaria,BG,Sofia-Grad,,1489.0,1489.0
Orizare,42.75,27.6167,Bulgaria,BG,Burgas,,1487.0,1487.0
Trivoditsi,42.1358,24.4661,Bulgaria,BG,Plovdiv,,1478.0,1478.0
Krepost,42.0167,25.6,Bulgaria,BG,Haskovo,,1475.0,1475.0
Bistritsa,42.2333,23.1667,Bulgaria,BG,Kyustendil,,1453.0,1453.0
Grivitsa,43.4167,24.7,Bulgaria,BG,Pleven,,1449.0,1449.0
Mirovyane,42.7833,23.3,Bulgaria,BG,Sofia-Grad,,1414.0,1414.0
Saraya,42.25,24.3167,Bulgaria,BG,Pazardzhik,,1405.0,1405.0
Stratsin,42.7667,27.4667,Bulgaria,BG,Burgas,,1403.0,1403.0
Planinitsa,42.8833,27.15,Bulgaria,BG,Burgas,,1402.0,1402.0
Krivina,42.6831,23.4669,Bulgaria,BG,Sofia-Grad,,1368.0,1368.0
Karageorgievo,42.7333,27.1833,Bulgaria,BG,Burgas,,1344.0,1344.0
Prosenik,42.8,27.45,Bulgaria,BG,Burgas,,1335.0,1335.0
Vinogradets,42.2833,24.1333,Bulgaria,BG,Pazardzhik,,1315.0,1315.0
Tankovo,42.6944,27.65,Bulgaria,BG,Burgas,,1312.0,1312.0
Maglen,42.7333,27.3667,Bulgaria,BG,Burgas,,1311.0,1311.0
Tsarev Brod,43.3333,27.0167,Bulgaria,BG,Shumen,,1301.0,1301.0
Tranak,42.95,27.2167,Bulgaria,BG,Burgas,,1298.0,1298.0
Razhitsa,42.7833,27.4,Bulgaria,BG,Burgas,,1287.0,1287.0
Shipka,42.7,25.3833,Bulgaria,BG,Stara Zagora,,1275.0,1275.0
Basarbovo,43.7742,25.9508,Bulgaria,BG,Ruse,,1267.0,1267.0
Karabunar,42.2669,24.1669,Bulgaria,BG,Pazardzhik,,1266.0,1266.0
Dzherman,42.2167,23.0833,Bulgaria,BG,Kyustendil,,1262.0,1262.0
Kosharitsa,42.75,27.7,Bulgaria,BG,Burgas,,1260.0,1260.0
Konstantinovo,43.163,27.779,Bulgaria,BG,Varna,,1255.0,1255.0
Benkovski,42.2082,24.6499,Bulgaria,BG,Plovdiv,,1255.0,1255.0
Yabalchevo,42.795,27.254,Bulgaria,BG,Burgas,,1253.0,1253.0
Galabets,42.7706,27.5286,Bulgaria,BG,Burgas,,1252.0,1252.0
Chervena Voda,43.8056,26.0989,Bulgaria,BG,Ruse,,1250.0,1250.0
Veselinovo,42.5329,26.5448,Bulgaria,BG,Yambol,,1227.0,1227.0
Bata,42.7333,27.5,Bulgaria,BG,Burgas,,1227.0,1227.0
Golyamo Novo,43.3356,26.3713,Bulgaria,BG,Razgrad,,1227.0,1227.0
Dolni Bogrov,42.7,23.5,Bulgaria,BG,Sofia-Grad,,1213.0,1213.0
Aldomirovtsi,42.85,22.9833,Bulgaria,BG,Sofia,,1208.0,1208.0
Karapelit,43.65,27.5667,Bulgaria,BG,Dobrich,,1201.0,1201.0
Novo Selo,43.8022,26.1932,Bulgaria,BG,Ruse,,1199.0,1199.0
Belogradets,43.351,27.33,Bulgaria,BG,Varna,,1192.0,1192.0
Sandrovo,43.9327,26.1149,Bulgaria,BG,Ruse,,1183.0,1183.0
Gabrovnitsa,43.533,23.267,Bulgaria,BG,Montana,,1170.0,1170.0
Yabalkovo,42.0667,25.45,Bulgaria,BG,Haskovo,,1167.0,1167.0
Vaglen,43.3,27.85,Bulgaria,BG,Varna,,1155.0,1155.0
Vardun,43.1339,26.5339,Bulgaria,BG,Targovishte,,1152.0,1152.0
Gorni Bogrov,42.7167,23.5333,Bulgaria,BG,Sofia-Grad,,1147.0,1147.0
Marchaevo,42.6,23.1833,Bulgaria,BG,Sofia-Grad,,1144.0,1144.0
Zaychar,42.7833,27.1667,Bulgaria,BG,Burgas,,1132.0,1132.0
Banitsa,43.3333,23.6833,Bulgaria,BG,Vratsa,,1131.0,1131.0
Voyvodovo,41.8569,25.5458,Bulgaria,BG,Haskovo,,1130.0,1130.0
Malevo,41.8583,25.6306,Bulgaria,BG,Haskovo,,1127.0,1127.0
Opalchensko,41.6,25.3667,Bulgaria,BG,Kardzhali,,1126.0,1126.0
Semerdzhievo,43.7701,26.1703,Bulgaria,BG,Ruse,,1123.0,1123.0
Zvezditsa,43.156,27.841,Bulgaria,BG,Varna,,1119.0,1119.0
Marinka,42.4015,27.4821,Bulgaria,BG,Burgas,,1112.0,1112.0
Gyulyovtsa,42.7667,27.6,Bulgaria,BG,Burgas,,1086.0,1086.0
Gluhar,41.6,25.4,Bulgaria,BG,Kardzhali,,1084.0,1084.0
Boboshevo,42.15,23.0167,Bulgaria,BG,Kyustendil,,1081.0,1081.0
Hadzhievo,42.1424,24.4555,Bulgaria,BG,Pazardzhik,,1071.0,1071.0
Vaklinovo,41.6,24.0667,Bulgaria,BG,Blagoevgrad,,1067.0,1067.0
Pisarevo,43.1558,25.7902,Bulgaria,BG,Veliko Tarnovo,,1066.0,1066.0
Varbitsa,43.3062,25.7666,Bulgaria,BG,Veliko Tarnovo,,1064.0,1064.0
Kladnitsa,42.568,23.1796,Bulgaria,BG,Pernik,,1062.0,1062.0
Dolen,41.424,25.134,Bulgaria,BG,Smolyan,,1058.0,1058.0
Patalenitsa,42.1169,24.2,Bulgaria,BG,Pazardzhik,,1047.0,1047.0
Gorski Izvor,42.021,25.422,Bulgaria,BG,Haskovo,,1046.0,1046.0
Stefanovo,43.4944,27.8569,Bulgaria,BG,Dobrich,,1044.0,1044.0
Borovo,41.6,23.7333,Bulgaria,BG,Blagoevgrad,,1043.0,1043.0
Dobromir,42.95,27.3,Bulgaria,BG,Burgas,,1042.0,1042.0
Snyagovo,42.847,27.278,Bulgaria,BG,Burgas,,1039.0,1039.0
Voysil,42.2167,24.6333,Bulgaria,BG,Plovdiv,,1036.0,1036.0
Cherven Breg,42.3,23.1667,Bulgaria,BG,Kyustendil,,1025.0,1025.0
Vresovo,42.8167,27.2,Bulgaria,BG,Burgas,,1022.0,1022.0
Kadievo,42.1314,24.6072,Bulgaria,BG,Plovdiv,,1021.0,1021.0
Vinitsa,42.1353,25.1363,Bulgaria,BG,Plovdiv,,1018.0,1018.0
Izvorsko,43.3,27.7667,Bulgaria,BG,Varna,,1016.0,1016.0
Mortagonovo,43.521,26.646,Bulgaria,BG,Razgrad,,1013.0,1013.0
Dobroslavtsi,42.8214,23.2833,Bulgaria,BG,Sofia-Grad,,1004.0,1004.0
Nicosia,35.1725,33.365,Cyprus,CY,Lefkosía,primary,330000.0,330000.0
Limassol,34.6747,33.0442,Cyprus,CY,Lemesós,admin,235056.0,235056.0
Larnaca,34.9167,33.6333,Cyprus,CY,Lárnaka,admin,84900.0,51468.0
Paphos,34.7667,32.4167,Cyprus,CY,Páfos,admin,63600.0,31738.0
Famagusta,35.125,33.9417,Cyprus,CY,Ammóchostos,admin,40920.0,40920.0
Kyrenia,35.3403,33.3192,Cyprus,CY,Kerýneia,admin,33207.0,33207.0
Káto Polemídia,34.6931,32.9992,Cyprus,CY,Lemesós,,22369.0,22369.0
Aradíppou,34.9528,33.59,Cyprus,CY,Lárnaka,,19199.0,19199.0
Latsia,35.1,33.3667,Cyprus,CY,Lefkosía,,16774.0,16774.0
Paralímni,35.0333,33.9833,Cyprus,CY,Ammóchostos,,14963.0,14963.0
Ágios Athanásios,34.7086,33.0503,Cyprus,CY,Lemesós,,14578.0,14578.0
Mésa Geitoniá,34.7022,33.0453,Cyprus,CY,Lemesós,,14477.0,14477.0
Germasógeia,34.7181,33.0856,Cyprus,CY,Lemesós,,13421.0,13421.0
Dáli,35.0211,33.42,Cyprus,CY,Lefkosía,,10466.0,10466.0
Géri,35.1069,33.4214,Cyprus,CY,Lefkosía,,8235.0,8235.0
Geroskípou,34.7667,32.4667,Cyprus,CY,Páfos,,7878.0,7878.0
Livádia,34.9494,33.6311,Cyprus,CY,Lárnaka,,7177.0,7177.0
Tséri,35.0669,33.3167,Cyprus,CY,Lefkosía,,7035.0,7035.0
Xylofágou,34.975,33.8517,Cyprus,CY,Lárnaka,,6231.0,6231.0
Voróklini,34.9828,33.6544,Cyprus,CY,Lárnaka,,6134.0,6134.0
Derýneia,35.0556,33.9569,Cyprus,CY,Ammóchostos,,5844.0,5844.0
Sotíra,35.0267,33.9503,Cyprus,CY,Ammóchostos,,5474.0,5474.0
Dromolaxiá,34.8833,33.5833,Cyprus,CY,Lárnaka,,5064.0,5064.0
Athíenou,35.0667,33.5333,Cyprus,CY,Lárnaka,,4996.0,4996.0
Chlórakas,34.8011,32.4086,Cyprus,CY,Páfos,,4420.0,4420.0
Frénaros,35.0408,33.9192,Cyprus,CY,Ammóchostos,,4298.0,4298.0
Kíti,34.8472,33.5719,Cyprus,CY,Lárnaka,,4252.0,4252.0
Miá Miliá,35.2049,33.4215,Cyprus,CY,Lefkosía,,4204.0,4204.0
Ormídeia,34.9925,33.7803,Cyprus,CY,Lárnaka,,4189.0,4189.0
Pégeia,34.8833,32.3833,Cyprus,CY,Páfos,,3953.0,3953.0
Episkopí,34.6708,32.9019,Cyprus,CY,Lemesós,,3681.0,3681.0
Xylotýmvou,35.0167,33.75,Cyprus,CY,Lárnaka,,3655.0,3655.0
Áskeia,35.1592,33.61,Cyprus,CY,Ammóchostos,,3561.0,3561.0
Káto Zódeia,35.1678,33.0072,Cyprus,CY,Lefkosía,,3317.0,3317.0
Agía Nápa,34.98,34.0,Cyprus,CY,Ammóchostos,,3212.0,3212.0
Páno Defterá,35.0806,33.2661,Cyprus,CY,Lefkosía,,2789.0,2789.0
Gerólakkos,35.1833,33.25,Cyprus,CY,Lefkosía,,2777.0,2777.0
Pýla,35.0139,33.6925,Cyprus,CY,Lárnaka,,2771.0,2771.0
Akáki,35.1333,33.1292,Cyprus,CY,Lefkosía,,2675.0,2675.0
Égkomi,35.1583,33.8911,Cyprus,CY,Lárnaka,,2645.0,2645.0
Lythrodóntas,34.9497,33.2961,Cyprus,CY,Lefkosía,,2628.0,2628.0
Prague,50.0875,14.4214,Czechia,CZ,Praha,primary,1357326.0,1357326.0
Brno,49.1925,16.6083,Czechia,CZ,Jihomoravský Kraj,admin,396101.0,396101.0
Ostrava,49.8356,18.2925,Czechia,CZ,Moravskoslezský Kraj,admin,283504.0,283504.0
Plzeň,49.7475,13.3775,Czechia,CZ,Plzeňský Kraj,admin,181240.0,181240.0
Liberec,50.7667,15.0667,Czechia,CZ,Liberecký Kraj,admin,107389.0,107389.0
Olomouc,49.5939,17.2508,Czechia,CZ,Olomoucký Kraj,admin,101825.0,101825.0
České Budějovice,48.9747,14.4747,Czechia,CZ,Jihočeský Kraj,admin,96417.0,96417.0
Hradec Králové,50.2092,15.8322,Czechia,CZ,Královéhradecký Kraj,admin,93506.0,93506.0
Pardubice,50.0386,15.7792,Czechia,CZ,Pardubický Kraj,admin,92149.0,92149.0
Ústí nad Labem,50.6583,14.0417,Czechia,CZ,Ústecký Kraj,admin,91963.0,91963.0
Zlín,49.2331,17.6669,Czechia,CZ,Zlínský Kraj,admin,74191.0,74191.0
Havířov,49.7831,18.4228,Czechia,CZ,Moravskoslezský Kraj,,70245.0,70245.0
Kladno,50.1431,14.1053,Czechia,CZ,Středočeský Kraj,,68436.0,68436.0
Most,50.5031,13.6367,Czechia,CZ,Ústecký Kraj,,63856.0,63856.0
Opava,49.9381,17.9044,Czechia,CZ,Moravskoslezský Kraj,,55512.0,55512.0
Frýdek-Místek,49.6856,18.3506,Czechia,CZ,Moravskoslezský Kraj,,54188.0,54188.0
Jihlava,49.4003,15.5906,Czechia,CZ,Vysočina,admin,52548.0,52548.0
Teplice,50.6444,13.8319,Czechia,CZ,Ústecký Kraj,,50843.0,50843.0
Karviná,49.8542,18.5428,Czechia,CZ,Moravskoslezský Kraj,,50172.0,50172.0
Karlovy Vary,50.2306,12.8725,Czechia,CZ,Karlovarský Kraj,admin,49043.0,49043.0
Chomutov,50.4611,13.4167,Czechia,CZ,Ústecký Kraj,,46940.0,46940.0
Jablonec nad Nisou,50.7244,15.1681,Czechia,CZ,Liberecký Kraj,,45830.0,45830.0
Mladá Boleslav,50.4125,14.9044,Czechia,CZ,Středočeský Kraj,,45000.0,45000.0
Prostějov,49.4722,17.1106,Czechia,CZ,Olomoucký Kraj,,43551.0,43551.0
Přerov,49.4556,17.4511,Czechia,CZ,Olomoucký Kraj,,41634.0,41634.0
Česká Lípa,50.6886,14.5386,Czechia,CZ,Liberecký Kraj,,37262.0,37262.0
Třebíč,49.215,15.8817,Czechia,CZ,Vysočina,,34712.0,34712.0
Tábor,49.4144,14.6578,Czechia,CZ,Jihočeský Kraj,,34301.0,34301.0
Znojmo,48.8556,16.0489,Czechia,CZ,Jihomoravský Kraj,,34146.0,34146.0
Kolín,50.0281,15.2006,Czechia,CZ,Středočeský Kraj,,33289.0,33289.0
Příbram,49.6883,14.0092,Czechia,CZ,Středočeský Kraj,,32743.0,32743.0
Písek,49.3089,14.1475,Czechia,CZ,Jihočeský Kraj,,30742.0,30742.0
Kroměříž,49.2989,17.3931,Czechia,CZ,Zlínský Kraj,,28185.0,28185.0
Orlová,49.8453,18.4303,Czechia,CZ,Moravskoslezský Kraj,,27966.0,27966.0
Líšeň,49.2075,16.6861,Czechia,CZ,Jihomoravský Kraj,,26781.0,26781.0
Břevnov,50.0833,14.3579,Czechia,CZ,Středočeský Kraj,,25756.0,25756.0
Vsetín,49.3386,17.9961,Czechia,CZ,Zlínský Kraj,,25393.0,25393.0
Berlin,52.52,13.405,Germany,DE,Berlin,primary,4890363.0,3755251.0
Stuttgart,48.7775,9.18,Germany,DE,Baden-Württemberg,admin,2787724.0,632865.0
Munich,48.1375,11.575,Germany,DE,Bavaria,admin,2606021.0,1512491.0
Hamburg,53.55,10.0,Germany,DE,Hamburg,admin,2484800.0,1892122.0
Cologne,50.9364,6.9528,Germany,DE,North Rhine-Westphalia,,1084831.0,1084831.0
Frankfurt,50.1106,8.6822,Germany,DE,Hesse,minor,773068.0,773068.0
Düsseldorf,51.2333,6.7833,Germany,DE,North Rhine-Westphalia,admin,629047.0,629047.0
Leipzig,51.34,12.375,Germany,DE,Saxony,minor,616093.0,616093.0
Dortmund,51.5139,7.4653,Germany,DE,North Rhine-Westphalia,minor,593317.0,593317.0
Essen,51.4508,7.0131,Germany,DE,North Rhine-Westphalia,minor,584580.0,584580.0
Bremen,53.0758,8.8072,Germany,DE,Bremen,admin,569396.0,569396.0
Dresden,51.05,13.74,Germany,DE,Saxony,admin,563311.0,563311.0
Hannover,52.3667,9.7167,Germany,DE,Lower Saxony,admin,545045.0,545045.0
Nuremberg,49.4539,11.0775,Germany,DE,Bavaria,minor,523026.0,523026.0
Duisburg,51.4347,6.7625,Germany,DE,North Rhine-Westphalia,minor,502211.0,502211.0
Bochum,51.4819,7.2158,Germany,DE,North Rhine-Westphalia,minor,365742.0,365742.0
Wuppertal,51.2667,7.1833,Germany,DE,North Rhine-Westphalia,minor,358876.0,358876.0
Bielefeld,52.0211,8.5347,Germany,DE,North Rhine-Westphalia,minor,338332.0,338332.0
Bonn,50.7333,7.1,Germany,DE,North Rhine-Westphalia,minor,336465.0,336465.0
Münster,51.9625,7.6256,Germany,DE,North Rhine-Westphalia,minor,320946.0,320946.0
Mannheim,49.4878,8.4661,Germany,DE,Baden-Württemberg,minor,315554.0,315554.0
Karlsruhe,49.0092,8.404,Germany,DE,Baden-Württemberg,minor,308707.0,308707.0
Augsburg,48.3689,10.8978,Germany,DE,Bavaria,minor,301033.0,301033.0
Wiesbaden,50.0825,8.24,Germany,DE,Hesse,admin,283083.0,283083.0
Mönchengladbach,51.2,6.4333,Germany,DE,North Rhine-Westphalia,minor,268465.0,268465.0
Gelsenkirchen,51.5167,7.1,Germany,DE,North Rhine-Westphalia,minor,263000.0,263000.0
Aachen,50.7756,6.0836,Germany,DE,North Rhine-Westphalia,minor,252136.0,252136.0
Braunschweig,52.2667,10.5167,Germany,DE,Lower Saxony,minor,251804.0,251804.0
Chemnitz,50.8333,12.9167,Germany,DE,Saxony,minor,248563.0,248563.0
Kiel,54.3233,10.1394,Germany,DE,Schleswig-Holstein,admin,247717.0,247717.0
Halle,51.4828,11.9697,Germany,DE,Saxony-Anhalt,minor,242083.0,242083.0
Magdeburg,52.1317,11.6392,Germany,DE,Saxony-Anhalt,admin,239364.0,239364.0
Freiburg im Breisgau,47.995,7.85,Germany,DE,Baden-Württemberg,minor,236140.0,236140.0
Krefeld,51.3333,6.5667,Germany,DE,North Rhine-Westphalia,minor,228426.0,228426.0
Mainz,49.9994,8.2736,Germany,DE,Rhineland-Palatinate,admin,220552.0,220552.0
Lübeck,53.8697,10.6864,Germany,DE,Schleswig-Holstein,minor,218095.0,218095.0
Oberhausen,51.4967,6.8706,Germany,DE,North Rhine-Westphalia,minor,210824.0,210824.0
Rostock,54.0833,12.1333,Germany,DE,Mecklenburg-Western Pomerania,,209920.0,209920.0
Kassel,51.3158,9.4979,Germany,DE,Hesse,minor,204202.0,204202.0
Hagen,51.3667,7.4833,Germany,DE,North Rhine-Westphalia,minor,189783.0,189783.0
Potsdam,52.4,13.0667,Germany,DE,Brandenburg,admin,185750.0,185750.0
Saarbrücken,49.2333,7.0,Germany,DE,Saarland,admin,181959.0,181959.0
Hamm,51.6667,7.8167,Germany,DE,North Rhine-Westphalia,minor,180849.0,180849.0
Ludwigshafen,49.4811,8.4353,Germany,DE,Rhineland-Palatinate,minor,174265.0,174265.0
Oldenburg,53.1439,8.2139,Germany,DE,Lower Saxony,minor,172830.0,172830.0
Mülheim,51.4275,6.8825,Germany,DE,North Rhine-Westphalia,minor,172404.0,172404.0
Osnabrück,52.2833,8.05,Germany,DE,Lower Saxony,minor,167366.0,167366.0
Leverkusen,51.0333,6.9833,Germany,DE,North Rhine-Westphalia,minor,165748.0,165748.0
Heidelberg,49.4167,8.7167,Germany,DE,Baden-Württemberg,minor,162273.0,162273.0
Darmstadt,49.8722,8.6528,Germany,DE,Hesse,minor,162243.0,162243.0
Solingen,51.1667,7.0833,Germany,DE,North Rhine-Westphalia,minor,160643.0,160643.0
Regensburg,49.0167,12.0833,Germany,DE,Bavaria,minor,157443.0,157443.0
Herne,51.55,7.2167,Germany,DE,North Rhine-Westphalia,minor,157368.0,157368.0
Paderborn,51.7181,8.7542,Germany,DE,North Rhine-Westphalia,minor,154755.0,154755.0
Neuss,51.2,6.7,Germany,DE,North Rhine-Westphalia,minor,154139.0,154139.0
Ingolstadt,48.7631,11.425,Germany,DE,Bavaria,minor,141029.0,141029.0
Fürth,49.4667,11.0,Germany,DE,Bavaria,minor,131433.0,131433.0
Ulm,48.4,9.9833,Germany,DE,Baden-Württemberg,minor,128928.0,128928.0
Heilbronn,49.15,9.2167,Germany,DE,Baden-Württemberg,minor,128334.0,128334.0
Pforzheim,48.895,8.705,Germany,DE,Baden-Württemberg,minor,127849.0,127849.0
Würzburg,49.7833,9.9333,Germany,DE,Bavaria,minor,127810.0,127810.0
Wolfsburg,52.4231,10.7872,Germany,DE,Lower Saxony,minor,125961.0,125961.0
Göttingen,51.5339,9.9356,Germany,DE,Lower Saxony,minor,118946.0,118946.0
Bottrop,51.5247,6.9228,Germany,DE,North Rhine-Westphalia,minor,118113.0,118113.0
Reutlingen,48.4833,9.2167,Germany,DE,Baden-Württemberg,minor,117547.0,117547.0
Erlangen,49.5833,11.0167,Germany,DE,Bavaria,minor,116562.0,116562.0
Bremerhaven,53.55,8.5833,Germany,DE,Bremen,,115468.0,115468.0
Koblenz,50.3597,7.5978,Germany,DE,Rhineland-Palatinate,minor,115268.0,115268.0
Bergisch Gladbach,50.9918,7.1303,Germany,DE,North Rhine-Westphalia,minor,112712.0,112712.0
Remscheid,51.1833,7.2,Germany,DE,North Rhine-Westphalia,minor,112613.0,112613.0
Trier,49.7567,6.6414,Germany,DE,Rhineland-Palatinate,minor,112195.0,112195.0
Recklinghausen,51.585,7.1619,Germany,DE,North Rhine-Westphalia,minor,111734.0,111734.0
Jena,50.9272,11.5861,Germany,DE,Thuringia,minor,111191.0,111191.0
Moers,51.4592,6.6197,Germany,DE,North Rhine-Westphalia,,105287.0,105287.0
Salzgitter,52.15,10.3333,Germany,DE,Lower Saxony,minor,104548.0,104548.0
Siegen,50.8833,8.0167,Germany,DE,North Rhine-Westphalia,minor,102560.0,102560.0
Gütersloh,51.9,8.3833,Germany,DE,North Rhine-Westphalia,minor,102393.0,102393.0
Hildesheim,52.15,9.95,Germany,DE,Lower Saxony,minor,101858.0,101858.0
Hanau,50.1328,8.9169,Germany,DE,Hesse,minor,101364.0,101364.0
Kaiserslautern,49.4447,7.7689,Germany,DE,Rhineland-Palatinate,minor,101228.0,101228.0
Schwerin,53.6333,11.4167,Germany,DE,Mecklenburg-Western Pomerania,admin,98596.0,98596.0
Esslingen,48.7333,9.3167,Germany,DE,Baden-Württemberg,minor,94941.0,94941.0
Ludwigsburg,48.8975,9.1922,Germany,DE,Baden-Württemberg,minor,94157.0,94157.0
Flensburg,54.7819,9.4367,Germany,DE,Schleswig-Holstein,minor,92550.0,92550.0
Gladbeck,51.5667,6.9667,Germany,DE,North Rhine-Westphalia,,75889.0,75889.0
Rosenheim,47.85,12.1333,Germany,DE,Bavaria,minor,64403.0,64403.0
Herten,51.6,7.1333,Germany,DE,North Rhine-Westphalia,,62473.0,62473.0
Sankt Augustin,50.77,7.1867,Germany,DE,North Rhine-Westphalia,,56369.0,56369.0
Hilden,51.1714,6.9394,Germany,DE,North Rhine-Westphalia,,55815.0,55815.0
Elmshorn,53.7519,9.6511,Germany,DE,Schleswig-Holstein,,50772.0,50772.0
Halle-Neustadt,51.4789,11.9214,Germany,DE,Saxony-Anhalt,,46280.0,46280.0
Fellbach,48.8086,9.2758,Germany,DE,Baden-Württemberg,,45896.0,45896.0
Pinneberg,53.6333,9.8,Germany,DE,Schleswig-Holstein,minor,44279.0,44279.0
Siegburg,50.8014,7.2044,Germany,DE,North Rhine-Westphalia,minor,42049.0,42049.0
Germering,48.1333,11.3667,Germany,DE,Bavaria,,41355.0,41355.0
Ostfildern,48.7333,9.25,Germany,DE,Baden-Württemberg,,39806.0,39806.0
Kornwestheim,48.8598,9.1852,Germany,DE,Baden-Württemberg,,34130.0,34130.0
Unterschleißheim,48.2833,11.5667,Germany,DE,Bavaria,,29523.0,29523.0
Hattersheim,50.0722,8.4864,Germany,DE,Hesse,,28528.0,28528.0
Unterhaching,48.0658,11.61,Germany,DE,Bavaria,,25873.0,25873.0
Obertshausen,50.0667,8.8333,Germany,DE,Hesse,,25307.0,25307.0
Weingarten,47.8092,9.6444,Germany,DE,Baden-Württemberg,,25257.0,25257.0
Bad Soden am Taunus,50.1333,8.5,Germany,DE,Hesse,,23162.0,23162.0
Haar,48.1,11.7333,Germany,DE,Bavaria,,22555.0,22555.0
Ottobrunn,48.0667,11.6667,Germany,DE,Bavaria,,22430.0,22430.0
Eschborn,50.1436,8.57,Germany,DE,Hesse,,22070.0,22070.0
Puchheim,48.15,11.35,Germany,DE,Bavaria,,21420.0,21420.0
Bockum,51.3333,6.5667,Germany,DE,North Rhine-Westphalia,,20617.0,20617.0
Gröbenzell,48.2,11.3667,Germany,DE,Bavaria,,19717.0,19717.0
Schenefeld,53.6028,9.8233,Germany,DE,Schleswig-Holstein,,19707.0,19707.0
Wolfratshausen,47.9133,11.4278,Germany,DE,Bavaria,,19335.0,19335.0
Glinde,53.5406,10.2111,Germany,DE,Schleswig-Holstein,,18547.0,18547.0
Eilendorf,50.7794,6.1625,Germany,DE,North Rhine-Westphalia,,15892.0,15892.0
Eppelheim,49.4,8.6333,Germany,DE,Baden-Württemberg,,15555.0,15555.0
Neubiberg,48.0833,11.6833,Germany,DE,Bavaria,,14449.0,14449.0
Asperg,48.9,9.1333,Germany,DE,Baden-Württemberg,,13559.0,13559.0
Wentorf bei Hamburg,53.4931,10.2533,Germany,DE,Hamburg,,13539.0,13539.0
Kronshagen,54.3333,10.0833,Germany,DE,Schleswig-Holstein,,11908.0,11908.0
Eichenau,48.1667,11.3167,Germany,DE,Bavaria,,11867.0,11867.0
Kriftel,50.0833,8.45,Germany,DE,Hesse,,11151.0,11151.0
Steinbach am Taunus,50.1667,8.5667,Germany,DE,Hesse,,10846.0,10846.0
Weißenthurm,50.4144,7.4606,Germany,DE,Rhineland-Palatinate,,9259.0,9259.0
Neulußheim,49.2933,8.5219,Germany,DE,Baden-Württemberg,,7128.0,7128.0
Eichwalde,52.3667,13.6167,Germany,DE,Brandenburg,,6475.0,6475.0
Altbach,48.7239,9.3797,Germany,DE,Baden-Württemberg,,6422.0,6422.0
Merzhausen,47.9664,7.8286,Germany,DE,Baden-Württemberg,,5347.0,5347.0
Buckenhof,49.5939,11.05,Germany,DE,Bavaria,,3157.0,3157.0
Offenbach,50.1006,8.7665,Germany,DE,Hesse,minor,,
Erfurt,50.9781,11.0289,Germany,DE,Thuringia,admin,,
Copenhagen,55.6761,12.5683,Denmark,DK,Hovedstaden,primary,1366301.0,660842.0
Aarhus,56.1572,10.2107,Denmark,DK,Midtjylland,minor,290598.0,290598.0
Odense,55.3958,10.3886,Denmark,DK,Syddanmark,minor,182387.0,182387.0
Aalborg,57.05,9.9167,Denmark,DK,Nordjylland,admin,143598.0,119862.0
Esbjerg,55.4833,8.45,Denmark,DK,Syddanmark,minor,71921.0,71921.0
Randers,56.457,10.039,Denmark,DK,Midtjylland,minor,64057.0,64057.0
Horsens,55.8583,9.85,Denmark,DK,Midtjylland,minor,63162.0,63162.0
Kolding,55.4917,9.5,Denmark,DK,Syddanmark,minor,62338.0,62338.0
Vejle,55.7167,9.5333,Denmark,DK,Syddanmark,admin,61310.0,61310.0
Roskilde,55.65,12.0833,Denmark,DK,Sjælland,minor,52580.0,52580.0
Herning,56.1333,8.9833,Denmark,DK,Midtjylland,minor,51193.0,51193.0
Silkeborg,56.1833,9.5517,Denmark,DK,Midtjylland,minor,50866.0,50866.0
Hørsholm,55.8803,12.5081,Denmark,DK,Hovedstaden,minor,47836.0,47836.0
Helsingør,56.0361,12.6083,Denmark,DK,Hovedstaden,minor,47563.0,47563.0
Næstved,55.225,11.7583,Denmark,DK,Sjælland,minor,44996.0,44996.0
Viborg,56.4333,9.4,Denmark,DK,Midtjylland,admin,42234.0,42234.0
Fredericia,55.5667,9.75,Denmark,DK,Syddanmark,minor,41243.0,41243.0
Køge,55.4561,12.1797,Denmark,DK,Sjælland,minor,38588.0,38588.0
Holstebro,56.3572,8.6153,Denmark,DK,Midtjylland,minor,37022.0,37022.0
Taastrup,55.65,12.3,Denmark,DK,Hovedstaden,minor,36193.0,36193.0
Hillerød,55.9333,12.3167,Denmark,DK,Hovedstaden,admin,36043.0,36043.0
Slagelse,55.4049,11.3531,Denmark,DK,Sjælland,minor,34648.0,34648.0
Holbæk,55.7156,11.7225,Denmark,DK,Sjælland,minor,29960.0,29960.0
Sønderborg,54.9138,9.7922,Denmark,DK,Syddanmark,minor,28137.0,28137.0
Svendborg,55.0594,10.6083,Denmark,DK,Syddanmark,minor,27594.0,27594.0
Hjørring,57.4636,9.9814,Denmark,DK,Nordjylland,minor,25917.0,25917.0
Nørresundby,57.0667,9.9167,Denmark,DK,Nordjylland,,23718.0,23718.0
Ringsted,55.4425,11.79,Denmark,DK,Sjælland,minor,23498.0,23498.0
Frederikshavn,57.441,10.534,Denmark,DK,Nordjylland,minor,22961.0,22961.0
Haderslev,55.2428,9.525,Denmark,DK,Syddanmark,minor,22182.0,22182.0
Birkerød,55.8333,12.4333,Denmark,DK,Hovedstaden,,20853.0,20853.0
Farum,55.8083,12.3581,Denmark,DK,Hovedstaden,minor,20317.0,20317.0
Skive,56.5667,9.0333,Denmark,DK,Midtjylland,minor,20176.0,20176.0
Nykøbing Falster,54.7654,11.8755,Denmark,DK,Sjælland,minor,20105.0,20105.0
Skanderborg,56.0381,9.9253,Denmark,DK,Midtjylland,minor,20079.0,20079.0
Smørumnedre,55.7333,12.3,Denmark,DK,Hovedstaden,,19780.0,19780.0
Nyborg,55.3122,10.7897,Denmark,DK,Syddanmark,minor,17900.0,17900.0
Vordingborg,55.0,11.9,Denmark,DK,Sjælland,minor,17868.0,17868.0
Solrød Strand,55.5167,12.2167,Denmark,DK,Sjælland,minor,17382.0,17382.0
Frederikssund,55.8333,12.0666,Denmark,DK,Hovedstaden,minor,17135.0,17135.0
Lillerød,55.8681,12.3417,Denmark,DK,Hovedstaden,,16836.0,16836.0
Middelfart,55.4986,9.7444,Denmark,DK,Syddanmark,minor,16546.0,16546.0
Kalundborg,55.6814,11.085,Denmark,DK,Sjælland,minor,16486.0,16486.0
Ikast,56.1333,9.15,Denmark,DK,Midtjylland,minor,16215.0,16215.0
Aabenraa,55.0444,9.4181,Denmark,DK,Syddanmark,minor,15685.0,15685.0
Hedehusene,55.6547,12.1953,Denmark,DK,Hovedstaden,,14868.0,14868.0
Korsør,55.3336,11.1397,Denmark,DK,Sjælland,,14418.0,14418.0
Grenaa,56.4161,10.8923,Denmark,DK,Midtjylland,minor,14179.0,14179.0
Varde,55.62,8.4806,Denmark,DK,Syddanmark,minor,14108.0,14108.0
Rønne,55.0986,14.7014,Denmark,DK,Hovedstaden,minor,13798.0,13798.0
Thisted,56.9569,8.6944,Denmark,DK,Nordjylland,minor,13534.0,13534.0
Værløse,55.7819,12.3731,Denmark,DK,Hovedstaden,,13203.0,13203.0
Odder,55.9725,10.1497,Denmark,DK,Midtjylland,minor,12914.0,12914.0
Brønderslev,57.2694,9.9472,Denmark,DK,Nordjylland,minor,12884.0,12884.0
Frederiksværk,55.9667,12.0167,Denmark,DK,Hovedstaden,minor,12815.0,12815.0
Hedensted,55.7725,9.7017,Denmark,DK,Midtjylland,minor,12680.0,12680.0
Nakskov,54.8333,11.15,Denmark,DK,Sjælland,,12456.0,12456.0
Dragør,55.5833,12.6667,Denmark,DK,Hovedstaden,minor,12327.0,12327.0
Haslev,55.3333,11.9667,Denmark,DK,Sjælland,minor,12280.0,12280.0
Hobro,56.6333,9.8,Denmark,DK,Nordjylland,minor,12191.0,12191.0
Jyllinge,55.7511,12.1064,Denmark,DK,Sjælland,,10701.0,10701.0
Lystrup,56.2353,10.2375,Denmark,DK,Midtjylland,,10213.0,10213.0
Vejen,55.4774,9.1379,Denmark,DK,Syddanmark,minor,10206.0,10206.0
Struer,56.4856,8.5897,Denmark,DK,Midtjylland,minor,10112.0,10112.0
Ringkøbing,56.0897,8.2383,Denmark,DK,Midtjylland,minor,9975.0,9975.0
Humlebæk,55.9611,12.525,Denmark,DK,Hovedstaden,,9855.0,9855.0
Støvring,56.8867,9.8286,Denmark,DK,Nordjylland,minor,9190.0,9190.0
Galten,56.1533,9.9069,Denmark,DK,Midtjylland,,9177.0,9177.0
Nykøbing Mors,56.7953,8.8592,Denmark,DK,Nordjylland,minor,9068.0,9068.0
Fredensborg,55.975,12.4056,Denmark,DK,Hovedstaden,,8960.0,8960.0
Helsinge,56.0222,12.1972,Denmark,DK,Hovedstaden,minor,8906.0,8906.0
Sæby,57.3294,10.5322,Denmark,DK,Nordjylland,,8836.0,8836.0
Måløv,55.75,12.3333,Denmark,DK,Hovedstaden,,8693.0,8693.0
Aars,56.8032,9.5177,Denmark,DK,Nordjylland,minor,8657.0,8657.0
Løgten,56.1643,10.1857,Denmark,DK,Midtjylland,,8651.0,8651.0
Hundested,55.9667,11.85,Denmark,DK,Hovedstaden,,8520.0,8520.0
Hørning,56.085,10.0364,Denmark,DK,Midtjylland,,8474.0,8474.0
Ribe,55.3283,8.7622,Denmark,DK,Syddanmark,,8365.0,8365.0
Hinnerup,56.2644,10.0633,Denmark,DK,Midtjylland,minor,8351.0,8351.0
Hadsten,56.3333,10.05,Denmark,DK,Midtjylland,,8345.0,8345.0
Nivå,55.9336,12.5064,Denmark,DK,Hovedstaden,,8325.0,8325.0
Sorø,55.4333,11.5667,Denmark,DK,Sjælland,admin,8271.0,8271.0
Svenstrup,56.9767,9.8419,Denmark,DK,Nordjylland,,7754.0,7754.0
Tønder,54.9428,8.8639,Denmark,DK,Syddanmark,minor,7574.0,7574.0
Bjerringbro,56.3761,9.6565,Denmark,DK,Midtjylland,,7524.0,7524.0
Vojens,55.2483,9.3047,Denmark,DK,Syddanmark,,7480.0,7480.0
Ry,56.0922,9.7581,Denmark,DK,Midtjylland,,7382.0,7382.0
Ebeltoft,56.1936,10.6781,Denmark,DK,Midtjylland,,7289.0,7289.0
Bramming,55.4649,8.7068,Denmark,DK,Syddanmark,,7171.0,7171.0
Hammel,56.2567,9.8617,Denmark,DK,Midtjylland,,7019.0,7019.0
Fåborg,55.1,10.2333,Denmark,DK,Syddanmark,,6898.0,6898.0
Lemvig,56.55,8.3167,Denmark,DK,Midtjylland,minor,6827.0,6827.0
Slangerup,55.8467,12.1761,Denmark,DK,Hovedstaden,,6824.0,6824.0
Gilleleje,56.1167,12.3167,Denmark,DK,Hovedstaden,,6778.0,6778.0
Ringe,55.2375,10.4803,Denmark,DK,Syddanmark,minor,6607.0,6607.0
Aabybro,57.15,9.75,Denmark,DK,Nordjylland,minor,6559.0,6559.0
Skælskør,55.2539,11.2903,Denmark,DK,Sjælland,,6394.0,6394.0
Børkop,55.6419,9.6519,Denmark,DK,Syddanmark,,6353.0,6353.0
Hornslet,56.3158,10.3167,Denmark,DK,Midtjylland,,6328.0,6328.0
Assens,55.2667,9.9,Denmark,DK,Syddanmark,minor,6061.0,6061.0
Kerteminde,55.45,10.6667,Denmark,DK,Syddanmark,minor,6034.0,6034.0
Bellinge,55.335,10.3133,Denmark,DK,Syddanmark,,5826.0,5826.0
Hellebæk,56.0694,12.5556,Denmark,DK,Hovedstaden,,5816.0,5816.0
Maribo,54.7747,11.5011,Denmark,DK,Sjælland,minor,5734.0,5734.0
Nibe,56.9819,9.6397,Denmark,DK,Nordjylland,,5539.0,5539.0
Hirtshals,57.5833,9.95,Denmark,DK,Nordjylland,,5538.0,5538.0
Munkebo,55.4602,10.556,Denmark,DK,Syddanmark,,5535.0,5535.0
Tune,55.5936,12.17,Denmark,DK,Sjælland,,5347.0,5347.0
Otterup,55.5153,10.3986,Denmark,DK,Syddanmark,,5258.0,5258.0
Kjellerup,56.2847,9.4333,Denmark,DK,Midtjylland,,5223.0,5223.0
Fensmark,55.2778,11.805,Denmark,DK,Sjælland,,5217.0,5217.0
Mårslet,56.0681,10.1611,Denmark,DK,Midtjylland,,5162.0,5162.0
Klarup,57.0125,10.0597,Denmark,DK,Nordjylland,,5158.0,5158.0
Nykøbing Sjælland,55.925,11.6667,Denmark,DK,Sjælland,,5049.0,5049.0
Strøby Egede,55.4172,12.2431,Denmark,DK,Sjælland,,4984.0,4984.0
Hadsund,56.7167,10.1167,Denmark,DK,Nordjylland,,4983.0,4983.0
Strib,55.5375,9.7725,Denmark,DK,Syddanmark,,4858.0,4858.0
Vodskov,57.1084,10.0272,Denmark,DK,Nordjylland,,4821.0,4821.0
Viby,55.5511,12.0228,Denmark,DK,Sjælland,,4814.0,4814.0
Rudkøbing,54.9368,10.7097,Denmark,DK,Syddanmark,minor,4622.0,4622.0
Sakskøbing,54.8,11.6333,Denmark,DK,Sjælland,,4590.0,4590.0
Havdrup,55.5451,12.1165,Denmark,DK,Sjælland,,4392.0,4392.0
Gråsten,54.9197,9.5919,Denmark,DK,Syddanmark,,4365.0,4365.0
Høng,55.5044,11.2919,Denmark,DK,Sjælland,,4359.0,4359.0
Kirke Hvalsø,55.5942,11.8594,Denmark,DK,Sjælland,minor,4340.0,4340.0
Jyderup,55.66,11.3986,Denmark,DK,Sjælland,,4315.0,4315.0
Svogerslev,55.6342,12.0136,Denmark,DK,Sjælland,,4313.0,4313.0
Langeskov,55.3578,10.5856,Denmark,DK,Syddanmark,,4293.0,4293.0
Videbæk,56.0931,8.6325,Denmark,DK,Midtjylland,,4256.0,4256.0
Tarm,55.9067,8.5206,Denmark,DK,Midtjylland,,4104.0,4104.0
Bogense,55.5667,10.1,Denmark,DK,Syddanmark,minor,4074.0,4074.0
Dianalund,55.5272,11.4981,Denmark,DK,Sjælland,,4057.0,4057.0
Juelsminde,55.7081,10.0008,Denmark,DK,Midtjylland,,4023.0,4023.0
Brædstrup,55.9715,9.6113,Denmark,DK,Midtjylland,,4005.0,4005.0
Løgstør,56.9667,9.2583,Denmark,DK,Nordjylland,,3972.0,3972.0
Præstø,55.1206,12.0436,Denmark,DK,Sjælland,,3893.0,3893.0
Assentoft,56.4407,10.1487,Denmark,DK,Midtjylland,,3822.0,3822.0
Virklund,56.1306,9.5592,Denmark,DK,Midtjylland,,3683.0,3683.0
Nexø,55.0625,15.1319,Denmark,DK,Hovedstaden,,3674.0,3674.0
Store Heddinge,55.3089,12.3873,Denmark,DK,Sjælland,minor,3649.0,3649.0
Gistrup,56.9978,9.9933,Denmark,DK,Nordjylland,,3630.0,3630.0
Hjortshøj,56.2478,10.2647,Denmark,DK,Midtjylland,,3619.0,3619.0
Taulov,55.5406,9.6111,Denmark,DK,Syddanmark,,3513.0,3513.0
Storvorde,57.0,10.0833,Denmark,DK,Nordjylland,,3431.0,3431.0
Sabro,56.2117,10.0367,Denmark,DK,Midtjylland,,3308.0,3308.0
Rønde,56.3,10.4833,Denmark,DK,Midtjylland,minor,3295.0,3295.0
Thurø By,55.0425,10.6822,Denmark,DK,Syddanmark,,3232.0,3232.0
Nørre Åby,55.4578,9.8775,Denmark,DK,Syddanmark,,3224.0,3224.0
Trige,56.253,10.148,Denmark,DK,Midtjylland,,3224.0,3224.0
Vallensbæk Strand,55.6361,12.3642,Denmark,DK,Hovedstaden,minor,456.0,456.0
Frederiksberg,55.6785,12.5221,Denmark,DK,Hovedstaden,minor,,
Søborg,55.7302,12.5098,Denmark,DK,Hovedstaden,minor,,
Hvidovre,55.6503,12.4758,Denmark,DK,Hovedstaden,minor,,
Rødovre,55.6827,12.4644,Denmark,DK,Hovedstaden,minor,,
Charlottenlund,55.7537,12.5918,Denmark,DK,Hovedstaden,minor,,
Herlev,55.7235,12.4404,Denmark,DK,Hovedstaden,minor,,
Kongens Lyngby,55.7718,12.506,Denmark,DK,Hovedstaden,minor,,
Ballerup,55.7198,12.352,Denmark,DK,Hovedstaden,minor,,
Glostrup,55.6666,12.4038,Denmark,DK,Hovedstaden,minor,,
Brøndby,55.6541,12.4215,Denmark,DK,Hovedstaden,minor,,
Albertslund,55.6623,12.3351,Denmark,DK,Hovedstaden,minor,,
Ishøj,55.6184,12.3281,Denmark,DK,Hovedstaden,minor,,
Allerød,55.8703,12.3574,Denmark,DK,Hovedstaden,minor,,
Holte,55.8167,12.4667,Denmark,DK,Hovedstaden,minor,,
Greve,55.5966,12.2492,Denmark,DK,Sjælland,minor,,
Kokkedal,55.9098,12.5152,Denmark,DK,Hovedstaden,minor,,
Kastrup,55.6352,12.6489,Denmark,DK,Hovedstaden,minor,,
Stenløse,55.7677,12.196,Denmark,DK,Hovedstaden,minor,,
Ærøskøbing,54.8912,10.4083,Denmark,DK,Syddanmark,minor,,
Grindsted,55.754,8.9123,Denmark,DK,Syddanmark,minor,,
Højby,55.9115,11.5976,Denmark,DK,Sjælland,minor,,
Tranebjerg,55.8326,10.5972,Denmark,DK,Midtjylland,minor,,
Byrum,57.2568,10.9974,Denmark,DK,Nordjylland,minor,,
Tallinn,59.4372,24.7453,Estonia,EE,Tallinn,primary,614561.0,461346.0
Tartu,58.3833,26.7167,Estonia,EE,Tartu,admin,97524.0,97524.0
Narva,59.3758,28.1961,Estonia,EE,Narva,minor,53875.0,53875.0
Pärnu,58.3833,24.5,Estonia,EE,Pärnu,admin,39605.0,39605.0
Kohtla-Järve,59.3978,27.2572,Estonia,EE,Kohtla-Järve,minor,33675.0,33675.0
Viljandi,58.3667,25.6,Estonia,EE,Viljandi,admin,17353.0,17353.0
Maardu,59.4781,25.0161,Estonia,EE,Maardu,minor,16750.0,16750.0
Rakvere,59.35,26.35,Estonia,EE,Rakvere,admin,15614.0,15614.0
Kuressaare,58.25,22.4833,Estonia,EE,Saaremaa,admin,13197.0,13197.0
Sillamäe,59.3931,27.7742,Estonia,EE,Sillamäe,minor,12452.0,12452.0
Valga,57.7833,26.0333,Estonia,EE,Valga,admin,12319.0,12319.0
Võru,57.8486,26.9928,Estonia,EE,Võru,admin,12055.0,12055.0
Keila,59.3086,24.4225,Estonia,EE,Keila,minor,10905.0,10905.0
Jõhvi,59.3575,27.4269,Estonia,EE,Jõhvi,admin,10852.0,10852.0
Haapsalu,58.9394,23.5408,Estonia,EE,Haapsalu,admin,9812.0,9812.0
Paide,58.8833,25.5572,Estonia,EE,Paide,admin,8081.0,8081.0
Saue,59.323,24.5622,Estonia,EE,Saue,minor,6045.0,6045.0
Elva,58.2244,26.4211,Estonia,EE,Elva,minor,5720.0,5720.0
Põlva,58.0536,27.0556,Estonia,EE,Põlva,admin,5535.0,5535.0
Tapa,59.2667,25.95,Estonia,EE,Tapa,minor,5488.0,5488.0
Väike-Maarja,59.1294,26.2525,Estonia,EE,Väike-Maarja,minor,5421.0,5421.0
Rapla,58.9944,24.8011,Estonia,EE,Rapla,admin,5353.0,5353.0
Jõgeva,58.7469,26.4,Estonia,EE,Jõgeva,admin,5224.0,5224.0
Türi,58.8094,25.4292,Estonia,EE,Türi,minor,5218.0,5218.0
Kiviõli,59.35,26.9667,Estonia,EE,Lüganuse,minor,4844.0,4844.0
Põltsamaa,58.6553,25.9769,Estonia,EE,Põltsamaa,minor,4198.0,4198.0
Paldiski,59.35,24.05,Estonia,EE,Lääne-Harju,minor,3983.0,3983.0
Sindi,58.4006,24.6675,Estonia,EE,Tori,minor,3837.0,3837.0
Kunda,59.5,26.5333,Estonia,EE,Viru-Nigula,minor,3057.0,3057.0
Kärdla,58.9981,22.7467,Estonia,EE,Hiiumaa,admin,3019.0,3019.0
Järveküla,59.3889,24.7967,Estonia,EE,Rae,,2880.0,2880.0
Kehra,59.3369,25.3283,Estonia,EE,Anija,minor,2846.0,2846.0
Tõrva,58.0028,25.9236,Estonia,EE,Tõrva,minor,2627.0,2627.0
Narva-Jõesuu,59.4589,28.0406,Estonia,EE,Narva-Jõesuu,minor,2618.0,2618.0
Tamsalu,59.159,26.108,Estonia,EE,Tapa,,2404.0,2404.0
Paikuse,58.3753,24.6228,Estonia,EE,Pärnu,,2375.0,2375.0
Vändra,58.6542,25.0369,Estonia,EE,Põhja-Pärnumaa,minor,2191.0,2191.0
Räpina,58.0978,27.4642,Estonia,EE,Räpina,minor,2175.0,2175.0
Otepää,58.0572,26.4983,Estonia,EE,Otepää,minor,2147.0,2147.0
Alliku,59.3558,24.5561,Estonia,EE,Saue,,2096.0,2096.0
Pärnamäe,59.5014,24.8689,Estonia,EE,Viimsi,,1987.0,1987.0
Muraste,59.4547,24.4394,Estonia,EE,Harku,,1964.0,1964.0
Randvere,59.5089,24.9064,Estonia,EE,Viimsi,,1918.0,1918.0
Tammiste,58.3836,24.6025,Estonia,EE,Tori,,1724.0,1724.0
Järva-Jaani,59.039,25.886,Estonia,EE,Järva,minor,1643.0,1643.0
Tiskre,59.4319,24.5611,Estonia,EE,Harku,,1615.0,1615.0
Kilingi-Nõmme,58.1497,24.9614,Estonia,EE,Saarde,minor,1611.0,1611.0
Lohkva,58.3692,26.7981,Estonia,EE,Luunja,,1534.0,1534.0
Rae,59.3806,24.8911,Estonia,EE,Rae,,1496.0,1496.0
Karksi-Nuia,58.1047,25.5475,Estonia,EE,Mulgi,,1462.0,1462.0
Viiratsi,58.3589,25.6397,Estonia,EE,Viljandi,,1332.0,1332.0
Püünsi,59.5531,24.7956,Estonia,EE,Viimsi,,1290.0,1290.0
Võhma,58.633,25.55,Estonia,EE,Põhja-Sakala,,1274.0,1274.0
Papsaare,58.4028,24.4161,Estonia,EE,Pärnu,,1260.0,1260.0
Antsla,57.8292,26.5289,Estonia,EE,Antsla,minor,1247.0,1247.0
Suurupi,59.4692,24.3839,Estonia,EE,Harku,,1222.0,1222.0
Lihula,58.6814,23.8453,Estonia,EE,Lääneranna,minor,1221.0,1221.0
Vääna-Jõesuu,59.435,24.3581,Estonia,EE,Harku,,1200.0,1200.0
Suure-Jaani,58.5333,25.4667,Estonia,EE,Põhja-Sakala,minor,1185.0,1185.0
Mustvee,58.8489,26.9436,Estonia,EE,Mustvee,minor,1163.0,1163.0
Soinaste,58.3428,26.6997,Estonia,EE,Kambja,,1110.0,1110.0
Kohtla-Nõmme,59.3539,27.1919,Estonia,EE,Toila,,1047.0,1047.0
Abja-Paluoja,58.1258,25.3586,Estonia,EE,Mulgi,minor,1039.0,1039.0
Uulu,58.2833,24.5833,Estonia,EE,Häädemeeste,minor,524.0,524.0
Kuusalu,59.4542,25.4392,Estonia,EE,Kuusalu,minor,254.0,254.0
Kurepalu,58.3167,26.8333,Estonia,EE,Kastre,minor,209.0,209.0
Liiva,58.6056,23.2372,Estonia,EE,Muhu,minor,165.0,165.0
Jõelähtme,59.4417,25.1333,Estonia,EE,Jõelähtme,minor,99.0,99.0
Viimsi,59.505,24.8481,Estonia,EE,Viimsi,minor,,
Kohila,59.1681,24.7575,Estonia,EE,Kohila,minor,,
Saku,59.3035,24.6638,Estonia,EE,Saku,minor,,
Märjamaa,58.9039,24.4306,Estonia,EE,Märjamaa,minor,,
Kose,59.1789,25.1731,Estonia,EE,Kose,minor,,
Ülenurme,58.3158,26.7242,Estonia,EE,Kambja,minor,,
Jüri,59.3597,24.921,Estonia,EE,Rae,minor,,
Kadrina,59.3347,26.145,Estonia,EE,Kadrina,minor,,
Aruküla,59.3669,25.0762,Estonia,EE,Raasiku,minor,,
Sõmeru,59.3611,26.4375,Estonia,EE,Rakvere,minor,,
Kiili,59.3077,24.8378,Estonia,EE,Kiili,minor,,
Nõo,58.2756,26.5375,Estonia,EE,Nõo,minor,,
Luunja,58.3558,26.8808,Estonia,EE,Luunja,minor,,
Rõuge,57.7278,26.9097,Estonia,EE,Rõuge,minor,,
Iisaku,59.1014,27.3081,Estonia,EE,Alutaguse,minor,,
Toila,59.4213,27.5081,Estonia,EE,Toila,minor,,
Harku,59.3864,24.5718,Estonia,EE,Harku,minor,,
Haljala,59.4336,26.2614,Estonia,EE,Haljala,minor,,
Alatskivi,58.5981,27.1336,Estonia,EE,Peipsiääre,minor,,
Pajusti,59.2744,26.4233,Estonia,EE,Vinni,minor,,
Järvakandi,58.7789,24.8258,Estonia,EE,Kehtna,minor,,
Kanepi,57.9831,26.7564,Estonia,EE,Kanepi,minor,,
Kõrveküla,58.4242,26.7822,Estonia,EE,Tartu,minor,,
Värska,57.9581,27.6381,Estonia,EE,Setomaa,minor,,
Taebla,58.9539,23.7522,Estonia,EE,Lääne-Nigula,minor,,
Madrid,40.4169,-3.7033,Spain,ES,Madrid,primary,6211000.0,3266126.0
Barcelona,41.3828,2.1769,Spain,ES,Catalonia,admin,4800000.0,1620343.0
Valencia,39.47,-0.3764,Spain,ES,Valencia,admin,1595000.0,807693.0
Sevilla,37.39,-5.99,Spain,ES,Andalusia,admin,1100000.0,684025.0
Málaga,36.7194,-4.42,Spain,ES,Andalusia,minor,967250.0,586384.0
Bilbao,43.2569,-2.9236,Spain,ES,Basque Country,minor,775000.0,346096.0
Zaragoza,41.65,-0.8833,Spain,ES,Aragon,admin,682513.0,682513.0
Murcia,37.9861,-1.1303,Spain,ES,Murcia,admin,672773.0,469177.0
Las Palmas,28.1258,-15.4353,Spain,ES,Canary Islands,admin,635000.0,635000.0
Palma,39.5667,2.65,Spain,ES,Balearic Islands,admin,550000.0,423350.0
Santa Cruz,28.4667,-16.25,Spain,ES,Canary Islands,admin,538000.0,209395.0
Alicante,38.3453,-0.4831,Spain,ES,Valencia,minor,349282.0,349282.0
Córdoba,37.8845,-4.7796,Spain,ES,Andalusia,minor,323763.0,323763.0
Valladolid,41.6528,-4.7236,Spain,ES,Castille-Leon,admin,297459.0,297459.0
Vigo,42.2314,-8.7124,Spain,ES,Galicia,,293652.0,293652.0
Gijón,43.5333,-5.7,Spain,ES,Asturias,,268313.0,268313.0
Vitoria-Gasteiz,42.85,-2.6833,Spain,ES,Basque Country,admin,255886.0,255886.0
A Coruña,43.365,-8.41,Spain,ES,Galicia,minor,247604.0,247604.0
Elche,38.2669,-0.6983,Spain,ES,Valencia,,238293.0,238293.0
Granada,37.1781,-3.6008,Spain,ES,Andalusia,minor,230595.0,230595.0
Badalona,41.4489,2.2461,Spain,ES,Catalonia,,225957.0,225957.0
Tarrasa,41.57,2.013,Spain,ES,Catalonia,,225277.0,225277.0
Petrel,38.4789,-0.7967,Spain,ES,Valencia,,218843.0,33914.0
Sabadell,41.5486,2.1075,Spain,ES,Catalonia,,218300.0,218300.0
Cartagena,37.6,-0.9833,Spain,ES,Murcia,,218050.0,218050.0
Oviedo,43.36,-5.845,Spain,ES,Asturias,admin,217584.0,217584.0
Jerez de la Frontera,36.6817,-6.1378,Spain,ES,Andalusia,,213231.0,213231.0
Móstoles,40.3333,-3.8667,Spain,ES,Madrid,,209639.0,208761.0
Pamplona,42.8167,-1.65,Spain,ES,Navarre,admin,205762.0,205762.0
Almería,36.8403,-2.4681,Spain,ES,Andalusia,minor,200578.0,200578.0
Alcalá de Henares,40.4667,-3.3667,Spain,ES,Madrid,,196888.0,196888.0
Leganés,40.3281,-3.7644,Spain,ES,Madrid,,190665.0,190665.0
Donostia,43.3214,-1.9856,Spain,ES,Basque Country,minor,188743.0,188743.0
Fuenlabrada,40.2833,-3.8,Spain,ES,Madrid,,188736.0,188736.0
Getafe,40.3047,-3.7311,Spain,ES,Madrid,,185899.0,185899.0
Castellón de la Plana,39.9831,-0.0331,Spain,ES,Valencia,minor,176238.0,176238.0
Burgos,42.35,-3.7067,Spain,ES,Castille-Leon,minor,174451.0,174451.0
Albacete,38.9956,-1.8558,Spain,ES,Castille-La Mancha,minor,173206.0,173206.0
Santander,43.4628,-3.805,Spain,ES,Cantabria,admin,172726.0,172726.0
Alcorcón,40.35,-3.8333,Spain,ES,Madrid,,171772.0,171772.0
Guadalajara,40.6337,-3.1674,Spain,ES,Castille-La Mancha,minor,161683.0,89010.0
La Laguna,28.4853,-16.3167,Spain,ES,Canary Islands,,159034.0,159034.0
Marbella,36.5167,-4.8833,Spain,ES,Andalusia,,156295.0,156295.0
Logroño,42.465,-2.4456,Spain,ES,La Rioja,admin,150583.0,150583.0
Badajoz,38.8803,-6.9753,Spain,ES,Extremadura,minor,150190.0,150190.0
Salamanca,40.965,-5.6642,Spain,ES,Castille-Leon,minor,143954.0,143954.0
Lleida,41.6167,0.6333,Spain,ES,Catalonia,minor,143094.0,143094.0
Huelva,37.25,-6.95,Spain,ES,Andalusia,minor,142532.0,142532.0
Dos Hermanas,37.2836,-5.9222,Spain,ES,Andalusia,,138981.0,138981.0
Tarragona,41.1175,1.2528,Spain,ES,Catalonia,minor,138262.0,138262.0
Parla,40.2372,-3.7742,Spain,ES,Madrid,,133004.0,133004.0
Mataró,41.5333,2.45,Spain,ES,Catalonia,,129120.0,128956.0
Torrejón de Ardoz,40.4614,-3.4978,Spain,ES,Madrid,,127132.0,127132.0
Algeciras,36.1275,-5.4539,Spain,ES,Andalusia,,123639.0,123639.0
León,42.6056,-5.57,Spain,ES,Castille-Leon,minor,122051.0,120951.0
Alcobendas,40.5333,-3.6333,Spain,ES,Madrid,,117041.0,117041.0
Jaén,37.7667,-3.7711,Spain,ES,Andalusia,minor,111888.0,111888.0
Cádiz,36.535,-6.2975,Spain,ES,Andalusia,minor,111811.0,111811.0
Reus,41.156,1.108,Spain,ES,Catalonia,,108479.0,108479.0
Roquetas de Mar,36.7642,-2.6147,Spain,ES,Andalusia,,106510.0,106510.0
Girona,41.9844,2.8211,Spain,ES,Catalonia,minor,104320.0,104320.0
Ourense,42.3364,-7.8633,Spain,ES,Galicia,minor,104250.0,104250.0
Telde,27.9833,-15.4167,Spain,ES,Canary Islands,,102769.0,102472.0
San Vicente de Baracaldo,43.2972,-2.9917,Spain,ES,Basque Country,,101229.0,101229.0
Vaciamadrid,40.3394,-3.5181,Spain,ES,Madrid,,100250.0,100250.0
Santiago de Compostela,42.8778,-8.5444,Spain,ES,Galicia,admin,98687.0,98687.0
Las Rozas de Madrid,40.4917,-3.8733,Spain,ES,Madrid,,98086.0,98086.0
San Cugat del Vallés,41.4667,2.0833,Spain,ES,Catalonia,,97530.0,97530.0
San Fernando,36.4667,-6.2,Spain,ES,Andalusia,,93927.0,93927.0
San Sebastián de los Reyes,40.5469,-3.6258,Spain,ES,Madrid,,92734.0,92734.0
Torrevieja,37.9778,-0.6833,Spain,ES,Valencia,,89290.0,89290.0
Torrente,39.4389,-0.4656,Spain,ES,Valencia,,87295.0,87295.0
Ciudad de Melilla,35.3,-2.95,Spain,ES,Melilla,,86261.0,85170.0
Toledo,39.8567,-4.0244,Spain,ES,Castille-La Mancha,admin,86070.0,86070.0
Fuengirola,36.5417,-4.625,Spain,ES,Andalusia,,85598.0,85598.0
Arona,28.1,-16.6667,Spain,ES,Canary Islands,,85249.0,85249.0
San Baudilio de Llobregat,41.336,2.043,Spain,ES,Catalonia,,83919.0,83919.0
Ciudad de Ceuta,35.8883,-5.3156,Spain,ES,Ceuta,,83039.0,83039.0
Valdemoro,40.1908,-3.6742,Spain,ES,Madrid,,81394.0,81394.0
Rubí,41.4933,2.0325,Spain,ES,Catalonia,,80044.0,80044.0
Manresa,41.7294,1.8272,Spain,ES,Catalonia,,78877.0,78877.0
Gandía,38.9667,-0.1833,Spain,ES,Valencia,,78108.0,78108.0
Benalmádena,36.6,-4.5167,Spain,ES,Andalusia,,75801.0,75801.0
Avilés,43.5561,-5.9083,Spain,ES,Asturias,,75518.0,75518.0
Paterna,39.5028,-0.4406,Spain,ES,Valencia,,73488.0,73488.0
Majadahonda,40.4728,-3.8722,Spain,ES,Madrid,,72548.0,72548.0
Benidorm,38.5342,-0.1314,Spain,ES,Valencia,,72342.0,72342.0
Torremolinos,36.6218,-4.5003,Spain,ES,Andalusia,,70434.0,70434.0
Castelldefels,41.286,1.982,Spain,ES,Catalonia,,68427.0,68427.0
Villanueva y Geltrú,41.2242,1.7256,Spain,ES,Catalonia,,68152.0,68152.0
Viladecáns,41.3158,2.0197,Spain,ES,Catalonia,,66677.0,66677.0
Collado-Villalba,40.6333,-4.0083,Spain,ES,Madrid,,65657.0,65657.0
El Prat de Llobregat,41.3333,2.1,Spain,ES,Catalonia,,65516.0,65516.0
Arrecife,28.9625,-13.5506,Spain,ES,Canary Islands,,64497.0,63750.0
La Línea de la Concepción,36.1681,-5.3486,Spain,ES,Andalusia,,63773.0,63773.0
Granollers,41.608,2.288,Spain,ES,Catalonia,,63092.0,63092.0
Irún,43.3378,-1.7888,Spain,ES,Basque Country,,62920.0,62920.0
Boadilla del Monte,40.4069,-3.875,Spain,ES,Madrid,,62627.0,62627.0
San Vicente del Raspeig,38.3964,-0.5253,Spain,ES,Valencia,,59928.0,59928.0
Mérida,38.9,-6.3333,Spain,ES,Extremadura,admin,59461.0,59461.0
Elda,38.4789,-0.7967,Spain,ES,Valencia,,53034.0,53034.0
Ibiza,38.9089,1.4328,Spain,ES,Balearic Islands,,51996.0,51996.0
Mollet,41.539,2.213,Spain,ES,Catalonia,,51824.0,51824.0
Torrelavega,43.3531,-4.0458,Spain,ES,Cantabria,,51361.0,51361.0
Rincón de la Victoria,36.7167,-4.2833,Spain,ES,Andalusia,,51300.0,51300.0
Figueras,42.2667,2.965,Spain,ES,Catalonia,,47879.0,47879.0
Gavá,41.3072,2.0039,Spain,ES,Catalonia,,47593.0,47593.0
Vich,41.9303,2.2547,Spain,ES,Catalonia,,47545.0,47545.0
Mairena del Aljarafe,37.3333,-6.0667,Spain,ES,Andalusia,,47541.0,47541.0
Esplugas de Llobregat,41.3767,2.0858,Spain,ES,Catalonia,,46921.0,46921.0
Santurce-Antiguo,43.3303,-3.0314,Spain,ES,Basque Country,,46057.0,46057.0
San Felíu de Llobregat,41.3833,2.0439,Spain,ES,Catalonia,,46056.0,46056.0
Mislata,39.475,-0.4156,Spain,ES,Valencia,,45644.0,45644.0
Portugalete,43.3194,-3.0194,Spain,ES,Basque Country,,44629.0,44629.0
Alcantarilla,37.9722,-1.2094,Spain,ES,Murcia,,43049.0,43049.0
Blanes,41.676,2.793,Spain,ES,Catalonia,,41653.0,41653.0
Igualada,41.5833,1.6167,Spain,ES,Catalonia,,41164.0,41164.0
Villafranca del Panadés,41.3447,1.6994,Spain,ES,Catalonia,,40714.0,40714.0
Burjasot,39.5064,-0.4067,Spain,ES,Valencia,,39702.0,39702.0
Vendrell,41.2203,1.5347,Spain,ES,Catalonia,,39601.0,39601.0
San Fernando de Henares,40.4256,-3.5353,Spain,ES,Madrid,,38974.0,38974.0
Arucas,28.1188,-15.5231,Spain,ES,Canary Islands,,38601.0,38601.0
Ripollet,41.4969,2.1574,Spain,ES,Catalonia,,38347.0,38347.0
Olot,42.1833,2.4833,Spain,ES,Catalonia,,37975.0,37975.0
San Adrián de Besós,41.4285,2.223,Spain,ES,Catalonia,,37925.0,37925.0
Moncada,41.4872,2.1878,Spain,ES,Catalonia,,36891.0,36891.0
Cambrils,41.0667,1.0583,Spain,ES,Catalonia,,36496.0,36496.0
Arroyomolinos,40.2667,-3.9,Spain,ES,Madrid,,35972.0,35972.0
Azuqueca de Henares,40.5647,-3.2681,Spain,ES,Castille-La Mancha,,35236.0,35182.0
San Juan Despí,41.3681,2.0581,Spain,ES,Catalonia,,34568.0,34568.0
Aldaya,39.4639,-0.4628,Spain,ES,Valencia,,33376.0,33376.0
Salt,41.9761,2.7881,Spain,ES,Catalonia,,32517.0,32517.0
Manises,39.4833,-0.45,Spain,ES,Valencia,,31573.0,31573.0
Calafell,41.202,1.57,Spain,ES,Catalonia,,30631.0,30631.0
Salou,41.077,1.144,Spain,ES,Catalonia,,30224.0,30224.0
Alacuás,39.4583,-0.4628,Spain,ES,Valencia,,29825.0,29825.0
Durango,43.1689,-2.63,Spain,ES,Basque Country,,29767.0,29767.0
Catarroja,39.4028,-0.4044,Spain,ES,Valencia,,29316.0,29316.0
Premiá de Mar,41.4919,2.3619,Spain,ES,Catalonia,,28767.0,28767.0
Martorell,41.477,1.928,Spain,ES,Catalonia,,28760.0,28760.0
Camas,37.4,-6.0333,Spain,ES,Andalusia,,28157.0,28157.0
San Vicente dels Horts,41.3953,2.0108,Spain,ES,Catalonia,,28115.0,28079.0
Sestao,43.3108,-3.0056,Spain,ES,Basque Country,,27834.0,27834.0
San Pedro del Pinatar,37.8167,-0.75,Spain,ES,Murcia,,27691.0,27691.0
Paiporta,39.4278,-0.4183,Spain,ES,Valencia,,27184.0,27184.0
San Andrés de la Barca,41.4478,1.9769,Spain,ES,Catalonia,,26910.0,26910.0
Molíns de Rey,41.4139,2.0158,Spain,ES,Catalonia,,26555.0,26555.0
Santa Perpetua de Moguda,41.5375,2.1819,Spain,ES,Catalonia,,25928.0,25928.0
Calpe,38.645,0.0442,Spain,ES,Valencia,,25854.0,25854.0
Alboraya,39.5,-0.3522,Spain,ES,Valencia,,25792.0,25792.0
Tomares,37.3764,-6.0458,Spain,ES,Andalusia,,25374.0,25374.0
San Juan de Alicante,38.4014,-0.4367,Spain,ES,Valencia,,25275.0,25275.0
Torrelodones,40.5756,-3.9292,Spain,ES,Madrid,,25115.0,25115.0
Armilla,37.15,-3.6167,Spain,ES,Andalusia,,25059.0,25059.0
Olesa de Montserrat,41.545,1.8944,Spain,ES,Catalonia,,24446.0,24446.0
Erandio,43.3047,-2.9731,Spain,ES,Basque Country,,24411.0,24411.0
Mejorada del Campo,40.3967,-3.3858,Spain,ES,Madrid,,23897.0,23897.0
Vilaseca de Solcina,41.1108,1.145,Spain,ES,Catalonia,,23176.0,23176.0
Zarautz,43.2833,-2.1667,Spain,ES,Basque Country,,23152.0,23152.0
Bormujos,37.3667,-6.0667,Spain,ES,Andalusia,,22780.0,22780.0
San Felíu de Guixols,41.7833,3.0333,Spain,ES,Catalonia,,22751.0,22751.0
San Juan de Aznalfarache,37.3667,-6.0167,Spain,ES,Andalusia,,22472.0,22472.0
Maracena,37.2,-3.6333,Spain,ES,Andalusia,,22275.0,22275.0
Moncada,39.5431,-0.3928,Spain,ES,Valencia,,22067.0,22067.0
Alfafar,39.4222,-0.3906,Spain,ES,Valencia,,21879.0,21879.0
Manlleu,42.0,2.2836,Spain,ES,Catalonia,,21172.0,21172.0
San Juan de Vilasar,41.506,2.391,Spain,ES,Catalonia,,21055.0,21055.0
Palafrugell,41.9174,3.1631,Spain,ES,Catalonia,,21049.0,21049.0
Puzol,39.6167,-0.3011,Spain,ES,Valencia,,20731.0,20731.0
Bañolas,42.1194,2.7664,Spain,ES,Catalonia,,20506.0,20506.0
Sant Just Desvern,41.383,2.075,Spain,ES,Catalonia,,20462.0,20462.0
Archena,38.115,-1.2992,Spain,ES,Murcia,,20110.0,20110.0
Calella,41.6128,2.6575,Spain,ES,Catalonia,,19862.0,19862.0
Humanes de Madrid,40.2539,-3.8278,Spain,ES,Madrid,,19838.0,19838.0
Barañáin,42.8,-1.6667,Spain,ES,Navarre,,19575.0,19575.0
Malgrat de Mar,41.65,2.75,Spain,ES,Catalonia,,19213.0,19213.0
La Corredoría,43.3853,-5.8208,Spain,ES,Asturias,,19191.0,19191.0
Cardedeu,41.6406,2.3594,Spain,ES,Catalonia,,19023.0,19023.0
Utebo,41.7167,-1.0,Spain,ES,Aragon,,18955.0,18955.0
El Astillero,43.4017,-3.8194,Spain,ES,Cantabria,,18220.0,18220.0
Palamós,41.85,3.1292,Spain,ES,Catalonia,,18196.0,18145.0
Torredembarra,41.15,1.4,Spain,ES,Catalonia,,17670.0,17670.0
Castilleja de la Cuesta,37.3833,-6.05,Spain,ES,Andalusia,,17167.0,17167.0
Canovellas,41.6203,2.2847,Spain,ES,Catalonia,,17051.0,17051.0
Guernica y Luno,43.3167,-2.6667,Spain,ES,Basque Country,,17050.0,17050.0
Albal,39.3972,-0.4156,Spain,ES,Valencia,,17024.0,17024.0
Cubellas,41.21,1.6736,Spain,ES,Catalonia,,16914.0,16914.0
Montornés del Vallés,41.5333,2.2667,Spain,ES,Catalonia,,16800.0,16800.0
Masamagrell,39.5703,-0.33,Spain,ES,Valencia,,16766.0,16766.0
Churriana de la Vega,37.15,-3.65,Spain,ES,Andalusia,,16445.0,16445.0
Arenys de Mar,41.5819,2.5503,Spain,ES,Catalonia,,16342.0,16342.0
Aguadulce,36.7642,-2.6147,Spain,ES,Andalusia,,16176.0,16176.0
Benetúser,39.425,-0.3961,Spain,ES,Valencia,,15879.0,15879.0
Ermúa,43.1875,-2.5008,Spain,ES,Basque Country,,15599.0,15599.0
Cunit,41.1983,1.6406,Spain,ES,Catalonia,,15278.0,15278.0
Mollerusa,41.6319,0.8961,Spain,ES,Catalonia,,15037.0,15037.0
Canet de Mar,41.5833,2.5833,Spain,ES,Catalonia,,15010.0,15010.0
Alpedrete,40.6583,-4.0322,Spain,ES,Madrid,,15006.0,15006.0
Torelló,42.0495,2.265,Spain,ES,Catalonia,,14902.0,14902.0
Sopelana,43.3814,-2.9792,Spain,ES,Basque Country,,14872.0,14872.0
Ogíjares,37.1167,-3.6,Spain,ES,Andalusia,,14803.0,14803.0
Cuarte de Huerva,41.5833,-0.9167,Spain,ES,Aragon,,14701.0,14701.0
Santa Marta de Tormes,40.9494,-5.6325,Spain,ES,Castille-Leon,,14661.0,14661.0
Gines,37.3875,-6.0781,Spain,ES,Andalusia,,13481.0,13481.0
La Llagosta,41.5156,2.1928,Spain,ES,Catalonia,,13169.0,13169.0
Godella,39.52,-0.4114,Spain,ES,Valencia,,13050.0,13050.0
Velilla de San Antonio,40.3667,-3.4833,Spain,ES,Madrid,,12770.0,12770.0
Vilanova del Camí,41.5667,1.6333,Spain,ES,Catalonia,,12736.0,12699.0
Ceuti,38.0789,-1.2722,Spain,ES,Murcia,,12668.0,12668.0
Mongat,41.469,2.2805,Spain,ES,Catalonia,,12462.0,12462.0
Huétor Vega,37.15,-3.5667,Spain,ES,Andalusia,,12159.0,12159.0
San Andrés de Llevaneras,41.5733,2.4828,Spain,ES,Catalonia,,11831.0,11831.0
Picaña,39.4361,-0.435,Spain,ES,Valencia,,11760.0,11760.0
Pallejá,41.4242,1.9978,Spain,ES,Catalonia,,11736.0,11736.0
Peligros,37.2333,-3.6333,Spain,ES,Andalusia,,11676.0,11676.0
Beniel,38.0464,-1.0014,Spain,ES,Murcia,,11501.0,11501.0
Berriozar,42.8361,-1.6714,Spain,ES,Navarre,,10919.0,10919.0
Meliana,39.5272,-0.3492,Spain,ES,Valencia,,10918.0,10918.0
Sedaví,39.425,-0.385,Spain,ES,Valencia,,10637.0,10637.0
Gelves,37.3333,-6.0167,Spain,ES,Andalusia,,10388.0,10388.0
Garrucha,37.1842,-1.8214,Spain,ES,Andalusia,,10336.0,10336.0
Masanasa,39.4083,-0.3989,Spain,ES,Valencia,,10146.0,10146.0
Alella,41.495,2.296,Spain,ES,Catalonia,,10139.0,10139.0
Torrejón de la Calzada,40.2,-3.8,Spain,ES,Madrid,,9947.0,9947.0
Tabernes Blanques,39.5083,-0.3656,Spain,ES,Valencia,,9456.0,9456.0
Tiana,41.4831,2.2697,Spain,ES,Catalonia,,9198.0,9198.0
Montmeló,41.5547,2.25,Spain,ES,Catalonia,,8825.0,8825.0
Reinosa,43.0019,-4.1378,Spain,ES,Cantabria,,8570.0,8570.0
Colindres,43.3967,-3.4483,Spain,ES,Cantabria,,8549.0,8549.0
Santiponce,37.4353,-6.0433,Spain,ES,Andalusia,,8539.0,8539.0
Ortuella,43.3103,-3.0569,Spain,ES,Basque Country,,8536.0,8536.0
Santa Coloma de Cervelló,41.3639,2.0279,Spain,ES,Catalonia,,8393.0,8393.0
Puebla de Farnals,39.5643,-0.2834,Spain,ES,Valencia,,8368.0,8368.0
Ondárroa,43.3219,-2.4194,Spain,ES,Basque Country,,8179.0,8179.0
Cabrils,41.5262,2.3677,Spain,ES,Catalonia,,7799.0,7799.0
Cúllar-Vega,37.1531,-3.6706,Spain,ES,Andalusia,,7770.0,7770.0
Foyos,39.5386,-0.3567,Spain,ES,Valencia,,7641.0,7641.0
Rocafort,39.5306,-0.41,Spain,ES,Valencia,,7570.0,7570.0
Almácera,39.5117,-0.3561,Spain,ES,Valencia,,7504.0,7504.0
Bigastro,38.0631,-0.8956,Spain,ES,Valencia,,7361.0,7361.0
Canet de Berenguer,39.6794,-0.2206,Spain,ES,Valencia,,7265.0,7265.0
Lekeitio,43.3622,-2.4961,Spain,ES,Basque Country,,7143.0,7143.0
Castellar y Oliveral,39.4264,-0.3642,Spain,ES,Valencia,,7020.0,7020.0
Villanueva del Ariscal,37.3833,-6.1333,Spain,ES,Andalusia,,6814.0,6814.0
Teyá,41.499,2.324,Spain,ES,Catalonia,,6696.0,6696.0
Roda del Ter,41.9839,2.3106,Spain,ES,Catalonia,,6680.0,6680.0
Nazaret,39.4481,-0.3335,Spain,ES,Valencia,,6117.0,6117.0
Navarcles,41.752,1.903,Spain,ES,Catalonia,,6109.0,6109.0
Tanos,43.3325,-4.0438,Spain,ES,Cantabria,,5857.0,5857.0
Cájar,37.1333,-3.5667,Spain,ES,Andalusia,,5447.0,5447.0
Capellades,41.5319,1.6867,Spain,ES,Catalonia,,5417.0,5417.0
Sarriá de Ter,42.014,2.818,Spain,ES,Catalonia,,5327.0,5327.0
Bellreguart,38.9464,-0.1625,Spain,ES,Valencia,,4811.0,4811.0
Rafal,38.1,-0.8333,Spain,ES,Valencia,,4634.0,4634.0
Formentera de Segura,38.0833,-0.75,Spain,ES,Valencia,,4618.0,4618.0
Hostalrich,41.75,2.6333,Spain,ES,Catalonia,,4410.0,4410.0
Albuixech,39.5436,-0.3217,Spain,ES,Valencia,,4343.0,4343.0
Jun,37.2167,-3.6,Spain,ES,Andalusia,,4061.0,4061.0
Sierrapando,43.3436,-4.0367,Spain,ES,Cantabria,,3948.0,3948.0
Bonrepós y Mirambell,39.5206,-0.365,Spain,ES,Valencia,,3907.0,3907.0
San Hipólito de Voltregá,42.0172,2.2389,Spain,ES,Catalonia,,3711.0,3711.0
Vinalesa,39.5381,-0.3706,Spain,ES,Valencia,,3495.0,3495.0
Alfara del Patriarca,39.5436,-0.385,Spain,ES,Valencia,,3455.0,3455.0
Caldas de Estrach,41.5719,2.5286,Spain,ES,Catalonia,,3223.0,3223.0
San Andrés,28.5042,-16.1931,Spain,ES,Canary Islands,,3121.0,3121.0
Miramar,38.95,-0.1389,Spain,ES,Valencia,,2978.0,2978.0
Castilleja de Guzmán,37.4,-6.05,Spain,ES,Andalusia,,2874.0,2874.0
Barreda,43.3722,-4.0408,Spain,ES,Cantabria,,2689.0,2689.0
Masalfasar,39.5611,-0.325,Spain,ES,Valencia,,2609.0,2609.0
Almoines,38.9433,-0.1822,Spain,ES,Valencia,,2519.0,2519.0
Benisanó,39.6136,-0.5778,Spain,ES,Valencia,,2385.0,2385.0
Molnás,41.15,1.3167,Spain,ES,Catalonia,,1992.0,1992.0
Varea,42.4636,-2.4072,Spain,ES,La Rioja,,1866.0,1866.0
El Saler,39.3825,-0.3325,Spain,ES,Valencia,,1699.0,1699.0
Fuente de San Luis,39.4442,-0.3675,Spain,ES,Valencia,,1668.0,1668.0
El Perelló,39.2797,-0.2775,Spain,ES,Valencia,,1602.0,1602.0
Benirredrá,38.9611,-0.1919,Spain,ES,Valencia,,1571.0,1571.0
Ganzo,43.3591,-4.0673,Spain,ES,Cantabria,,1559.0,1559.0
Benzú,35.9161,-5.3731,Spain,ES,Ceuta,,1221.0,1221.0
Carpesa,39.5167,-0.3778,Spain,ES,Valencia,,1215.0,1215.0
El Puente del Arzobispo,39.8,-5.1667,Spain,ES,Castille-La Mancha,,1171.0,1171.0
Igueldo,43.3089,-2.0372,Spain,ES,Basque Country,,1105.0,1105.0
Palmera,38.9417,-0.1517,Spain,ES,Valencia,,1043.0,1043.0
Hortaleza,40.4667,-3.6333,Spain,ES,Madrid,,1039.0,1039.0
Torres,43.3532,-4.0684,Spain,ES,Cantabria,,1033.0,1033.0
Helsinki,60.1708,24.9375,Finland,FI,Uusimaa,primary,1360075.0,664921.0
Tampere,61.4981,23.76,Finland,FI,Pirkanmaa,admin,334112.0,231853.0
Espoo,60.2056,24.6556,Finland,FI,Uusimaa,minor,297132.0,297132.0
Turku,60.45,22.2667,Finland,FI,Varsinais-Suomi,admin,252468.0,187604.0
Vantaa,60.2944,25.0403,Finland,FI,Uusimaa,minor,214605.0,214605.0
Oulu,65.0142,25.4719,Finland,FI,Pohjois-Pohjanmaa,admin,208939.0,200526.0
Jyväskylä,62.2417,25.7417,Finland,FI,Keski-Suomi,admin,145887.0,145887.0
Kuopio,62.8925,27.6783,Finland,FI,Pohjois-Savo,admin,121557.0,121557.0
Lahti,60.9833,25.65,Finland,FI,Päijät-Häme,admin,118119.0,118119.0
Kouvola,60.8681,26.7042,Finland,FI,Kymenlaakso,admin,85855.0,85855.0
Pori,61.4833,21.8,Finland,FI,Satakunta,admin,85363.0,85363.0
Joensuu,62.6,29.75,Finland,FI,Pohjois-Karjala,admin,75514.0,75514.0
Lappeenranta,61.0667,28.1833,Finland,FI,Etelä-Karjala,admin,72650.0,72650.0
Hämeenlinna,60.9944,24.4667,Finland,FI,Kanta-Häme,admin,68011.0,68011.0
Vaasa,63.1,21.6167,Finland,FI,Pohjanmaa,admin,67619.0,67619.0
Seinäjoki,62.7917,22.8417,Finland,FI,Etelä-Pohjanmaa,admin,64150.0,64150.0
Rovaniemi,66.5,25.7333,Finland,FI,Lappi,admin,62420.0,62420.0
Mikkeli,61.689,27.272,Finland,FI,Etelä-Savo,admin,54621.0,54621.0
Salo,60.3861,23.125,Finland,FI,Varsinais-Suomi,minor,52984.0,52984.0
Kotka,60.4667,26.9417,Finland,FI,Kymenlaakso,minor,50617.0,50617.0
Porvoo,60.3944,25.6639,Finland,FI,Uusimaa,minor,49928.0,49928.0
Kokkola,63.8367,23.1333,Finland,FI,Keski-Pohjanmaa,admin,47570.0,47570.0
Lohja,60.25,24.0667,Finland,FI,Uusimaa,minor,46785.0,46785.0
Hyvinkää,60.6333,24.85,Finland,FI,Uusimaa,minor,46739.0,46739.0
Kirkkonummi,60.1167,24.4333,Finland,FI,Uusimaa,minor,40722.0,40722.0
Järvenpää,60.475,25.0917,Finland,FI,Uusimaa,minor,40106.0,40106.0
Rauma,61.1333,21.5,Finland,FI,Satakunta,minor,39809.0,39809.0
Tuusula,60.4333,25.05,Finland,FI,Uusimaa,minor,38646.0,38646.0
Kajaani,64.2311,27.7194,Finland,FI,Kainuu,admin,36297.0,36297.0
Savonlinna,61.8681,28.8861,Finland,FI,Etelä-Savo,minor,35523.0,35523.0
Kerava,60.4,25.1,Finland,FI,Uusimaa,minor,35293.0,35293.0
Nokia,61.4767,23.5053,Finland,FI,Pirkanmaa,minor,33322.0,33322.0
Kaarina,60.4,22.3667,Finland,FI,Varsinais-Suomi,minor,33099.0,33099.0
Ylöjärvi,61.55,23.5833,Finland,FI,Pirkanmaa,minor,32738.0,32738.0
Kangasala,61.4667,24.0667,Finland,FI,Pirkanmaa,minor,32229.0,32229.0
Jyväskylän Maalaiskunta,62.2889,25.7417,Finland,FI,Keski-Suomi,,31870.0,31870.0
Riihimäki,60.7333,24.7667,Finland,FI,Kanta-Häme,minor,29269.0,29269.0
Raseborg,59.975,23.4333,Finland,FI,Uusimaa,minor,28405.0,28405.0
Imatra,61.1833,28.7667,Finland,FI,Etelä-Karjala,minor,25655.0,25655.0
Sastamala,61.3417,22.9083,Finland,FI,Pirkanmaa,minor,25220.0,25220.0
Raahe,64.6833,24.4667,Finland,FI,Pohjois-Pohjanmaa,minor,25165.0,25165.0
Raisio,60.4858,22.1692,Finland,FI,Varsinais-Suomi,minor,24290.0,24290.0
Hollola,60.9867,25.5167,Finland,FI,Päijät-Häme,minor,22943.0,22943.0
Lempäälä,61.3167,23.75,Finland,FI,Pirkanmaa,minor,22536.0,22536.0
Tornio,65.85,24.15,Finland,FI,Lappi,minor,21928.0,21928.0
Siilinjärvi,63.075,27.66,Finland,FI,Pohjois-Savo,minor,21794.0,21794.0
Kurikka,62.6167,22.4,Finland,FI,Etelä-Pohjanmaa,minor,21734.0,21734.0
Iisalmi,63.5567,27.1883,Finland,FI,Pohjois-Savo,minor,21639.0,21639.0
Varkaus,62.3167,27.8917,Finland,FI,Pohjois-Savo,minor,21155.0,21155.0
Klaukkala,60.382,24.7492,Finland,FI,Uusimaa,,21019.0,21019.0
Valkeakoski,61.2667,24.0333,Finland,FI,Pirkanmaa,minor,20800.0,20800.0
Mäntsälä,60.6331,25.3167,Finland,FI,Uusimaa,minor,20685.0,20685.0
Äänekoski,62.6,25.725,Finland,FI,Keski-Suomi,minor,19919.0,19919.0
Hamina,60.5667,27.2,Finland,FI,Kymenlaakso,minor,19877.0,19877.0
Kuusankoski,60.9083,26.6236,Finland,FI,Kymenlaakso,,19831.0,19831.0
Korsholm,63.1125,21.6778,Finland,FI,Pohjanmaa,minor,19662.0,19662.0
Lieto,60.505,22.4583,Finland,FI,Varsinais-Suomi,minor,19596.0,19596.0
Heinola,61.2,26.0333,Finland,FI,Päijät-Häme,minor,19575.0,19575.0
Kemi,65.7361,24.5636,Finland,FI,Lappi,minor,19437.0,19437.0
Sipoo,60.375,25.2667,Finland,FI,Uusimaa,minor,19399.0,19399.0
Jämsä,61.8667,25.1833,Finland,FI,Keski-Suomi,minor,19347.0,19347.0
Jakobstad,63.6667,22.7,Finland,FI,Pohjanmaa,minor,19207.0,19207.0
Naantali,60.4667,22.0333,Finland,FI,Varsinais-Suomi,minor,19167.0,19167.0
Haukipudas,65.1833,25.35,Finland,FI,Pohjois-Pohjanmaa,,18994.0,18994.0
Laukaa,62.4167,25.95,Finland,FI,Keski-Suomi,minor,18978.0,18978.0
Pirkkala,61.4667,23.65,Finland,FI,Pirkanmaa,minor,18913.0,18913.0
Pieksämäki,62.3003,27.1642,Finland,FI,Etelä-Savo,minor,18220.0,18220.0
Kempele,64.9125,25.5083,Finland,FI,Pohjois-Pohjanmaa,minor,17535.0,17535.0
Forssa,60.8167,23.625,Finland,FI,Kanta-Häme,minor,17185.0,17185.0
Janakkala,60.9167,24.65,Finland,FI,Kanta-Häme,minor,16853.0,16853.0
Kauhava,63.1,23.0667,Finland,FI,Etelä-Pohjanmaa,minor,16784.0,16784.0
Orimattila,60.8042,25.7333,Finland,FI,Päijät-Häme,minor,16221.0,16221.0
Loimaa,60.85,23.0583,Finland,FI,Varsinais-Suomi,minor,16150.0,16150.0
Pielisjärvi,63.3,30.05,Finland,FI,Pohjois-Karjala,,16150.0,16150.0
Uusikaupunki,60.8,21.4167,Finland,FI,Varsinais-Suomi,minor,15752.0,15752.0
Sippola,60.7392,27.0003,Finland,FI,Kymenlaakso,,15278.0,15278.0
Vammala,61.3417,22.9083,Finland,FI,Pirkanmaa,,15213.0,15213.0
Kontiolahti,62.7667,29.85,Finland,FI,Pohjois-Karjala,minor,15157.0,15157.0
Kuusamo,65.9667,29.1833,Finland,FI,Pohjois-Pohjanmaa,minor,15146.0,15146.0
Pargas,60.3,22.3,Finland,FI,Varsinais-Suomi,minor,15132.0,15132.0
Ylivieska,64.075,24.5333,Finland,FI,Pohjois-Pohjanmaa,minor,15039.0,15039.0
Nastola,60.95,25.9333,Finland,FI,Päijät-Häme,,14890.0,14890.0
Lapua,62.97,23.0083,Finland,FI,Etelä-Pohjanmaa,minor,14609.0,14609.0
Loviisa,60.4583,26.2333,Finland,FI,Uusimaa,minor,14557.0,14557.0
Kauhajoki,62.4319,22.1794,Finland,FI,Etelä-Pohjanmaa,minor,13610.0,13610.0
Kiiminki,65.1333,25.775,Finland,FI,Pohjois-Pohjanmaa,,13320.0,13320.0
Ulvila,61.4333,21.9,Finland,FI,Satakunta,minor,13237.0,13237.0
Ilmajoki,62.7333,22.5833,Finland,FI,Etelä-Pohjanmaa,minor,12369.0,12369.0
Kalajoki,64.2667,23.95,Finland,FI,Pohjois-Pohjanmaa,minor,12335.0,12335.0
Liperi,62.5333,29.3833,Finland,FI,Pohjois-Karjala,minor,12150.0,12150.0
Eura,61.1333,22.1333,Finland,FI,Satakunta,minor,12128.0,12128.0
Alavus,62.5917,23.6167,Finland,FI,Etelä-Pohjanmaa,minor,12044.0,12044.0
Mikkelin Maalaiskunta,61.6776,27.2021,Finland,FI,Etelä-Savo,,11988.0,11988.0
Vehkalahti,60.5756,27.1439,Finland,FI,Kymenlaakso,,11922.0,11922.0
Kankaanpää,61.8,22.4,Finland,FI,Satakunta,minor,11769.0,11769.0
Sääminki,61.8675,28.8786,Finland,FI,Etelä-Savo,,11710.0,11710.0
Mariehamn,60.1,19.9333,Finland,FI,Åland,admin,11461.0,11461.0
Lieksa,63.3167,30.0167,Finland,FI,Pohjois-Karjala,minor,11297.0,11297.0
Valkeala,60.9389,26.7972,Finland,FI,Kymenlaakso,,11195.0,11195.0
Pedersöre,63.6642,22.7006,Finland,FI,Pohjanmaa,,11084.0,11084.0
Nivala,63.925,24.975,Finland,FI,Pohjois-Pohjanmaa,minor,10876.0,10876.0
Nurmo,62.8278,22.9083,Finland,FI,Etelä-Pohjanmaa,,10785.0,10785.0
Kivistö,60.3236,24.8453,Finland,FI,Uusimaa,,10665.0,10665.0
Joutseno,61.123,28.5015,Finland,FI,Etelä-Karjala,,10659.0,10659.0
Paimio,60.45,22.7,Finland,FI,Varsinais-Suomi,minor,10620.0,10620.0
Sotkamo,64.1333,28.3833,Finland,FI,Kainuu,minor,10423.0,10423.0
Hämeenkyrö,61.6333,23.2,Finland,FI,Pirkanmaa,minor,10257.0,10257.0
Huittinen,61.175,22.7,Finland,FI,Satakunta,minor,10207.0,10207.0
Liminka,64.8083,25.4167,Finland,FI,Pohjois-Pohjanmaa,minor,10133.0,10133.0
Muurame,62.1333,25.675,Finland,FI,Keski-Suomi,minor,10097.0,10097.0
Alajärvi,63.0,23.8167,Finland,FI,Etelä-Pohjanmaa,minor,10006.0,10006.0
Lapinlahti,63.3667,27.3833,Finland,FI,Pohjois-Savo,minor,9982.0,9982.0
Leppävirta,62.5,27.7833,Finland,FI,Pohjois-Savo,minor,9953.0,9953.0
Saarijärvi,62.705,25.2583,Finland,FI,Keski-Suomi,minor,9915.0,9915.0
Ii,65.3167,25.3667,Finland,FI,Pohjois-Pohjanmaa,minor,9853.0,9853.0
Oulunsalo,64.9333,25.4167,Finland,FI,Pohjois-Pohjanmaa,,9771.0,9771.0
Kitee,62.1,30.1333,Finland,FI,Pohjois-Karjala,minor,9727.0,9727.0
Masku,60.5667,22.1,Finland,FI,Varsinais-Suomi,minor,9656.0,9656.0
Kauniainen,60.2167,24.7333,Finland,FI,Uusimaa,minor,9624.0,9624.0
Eurajoki,61.2,21.7333,Finland,FI,Satakunta,minor,9521.0,9521.0
Orivesi,61.675,24.3583,Finland,FI,Pirkanmaa,minor,9408.0,9408.0
Närpes,62.4667,21.3333,Finland,FI,Pohjanmaa,minor,9387.0,9387.0
Hattula,61.05,24.3667,Finland,FI,Kanta-Häme,,9359.0,9359.0
Keuruu,62.2583,24.7083,Finland,FI,Keski-Suomi,minor,9250.0,9250.0
Muhos,64.8,26.0,Finland,FI,Pohjois-Pohjanmaa,minor,9019.0,9019.0
Somero,60.6333,23.5167,Finland,FI,Varsinais-Suomi,minor,8919.0,8919.0
Halikko,60.3972,23.0778,Finland,FI,Varsinais-Suomi,,8879.0,8879.0
Karis,60.0708,23.6625,Finland,FI,Uusimaa,,8787.0,8787.0
Sodankylä,67.4167,26.5833,Finland,FI,Lappi,minor,8782.0,8545.0
Karkkila,60.5333,24.2167,Finland,FI,Uusimaa,minor,8603.0,8603.0
Pöytyä,60.7167,22.6,Finland,FI,Varsinais-Suomi,,8562.0,8562.0
Laitila,60.8833,21.7,Finland,FI,Varsinais-Suomi,minor,8520.0,8520.0
Hanko,59.8283,22.9658,Finland,FI,Uusimaa,minor,8517.0,8517.0
Hausjärvi,60.7867,25.025,Finland,FI,Kanta-Häme,minor,8504.0,8504.0
Keminmaa,65.8,24.55,Finland,FI,Lappi,minor,8388.0,8388.0
Elimäki,60.7167,26.45,Finland,FI,Kymenlaakso,,8264.0,8264.0
Pudasjärvi,65.3583,27.0,Finland,FI,Pohjois-Pohjanmaa,minor,8257.0,8257.0
Loppi,60.7167,24.4417,Finland,FI,Kanta-Häme,minor,8175.0,8175.0
Laihia,62.975,22.0083,Finland,FI,Pohjanmaa,minor,8090.0,8090.0
Toijala,61.1667,23.8667,Finland,FI,Pirkanmaa,minor,8060.0,8060.0
Suomussalmi,64.8833,28.9167,Finland,FI,Kainuu,minor,8051.0,8051.0
Nurmes,63.545,29.1333,Finland,FI,Pohjois-Karjala,minor,7996.0,7996.0
Jalasjärvi,62.4917,22.7667,Finland,FI,Etelä-Pohjanmaa,minor,7885.0,7885.0
Nurmijärvi,60.4667,24.8083,Finland,FI,Uusimaa,minor,7841.0,7841.0
Mynämäki,60.6833,21.9833,Finland,FI,Varsinais-Suomi,minor,7838.0,7838.0
Kuhmo,64.125,29.5167,Finland,FI,Kainuu,minor,7755.0,7755.0
Oulainen,64.2667,24.8167,Finland,FI,Pohjois-Pohjanmaa,minor,7610.0,7610.0
Kiuruvesi,63.65,26.6167,Finland,FI,Pohjois-Savo,minor,7597.0,7597.0
Kokemäki,61.2583,22.35,Finland,FI,Satakunta,minor,7591.0,7591.0
Kemijärvi,66.7167,27.4333,Finland,FI,Lappi,minor,7534.0,7534.0
Nykarleby,63.5167,22.5333,Finland,FI,Pohjanmaa,minor,7521.0,7521.0
Rajamäki,60.525,24.7614,Finland,FI,Uusimaa,,7415.0,7415.0
Jämsänkoski,61.9181,25.1708,Finland,FI,Keski-Suomi,,7351.0,7351.0
Tyrvää,61.3474,22.9014,Finland,FI,Pirkanmaa,,7306.0,7306.0
Pyhäselkä,62.4333,29.9694,Finland,FI,Pohjois-Karjala,,7208.0,7208.0
Ikaalinen,61.7667,23.0667,Finland,FI,Pirkanmaa,minor,7207.0,7207.0
Outokumpu,62.725,29.0167,Finland,FI,Pohjois-Karjala,minor,7139.0,7139.0
Säkylä,61.05,22.35,Finland,FI,Satakunta,minor,7070.0,7070.0
Suonenjoki,62.625,27.125,Finland,FI,Pohjois-Savo,minor,6891.0,6891.0
Virrat,62.25,23.7667,Finland,FI,Pirkanmaa,minor,6844.0,6844.0
Inari,68.905,27.0303,Finland,FI,Lappi,minor,6804.0,6804.0
Tyrnävä,64.75,25.65,Finland,FI,Pohjois-Pohjanmaa,minor,6793.0,6793.0
Parkano,62.0083,23.025,Finland,FI,Pirkanmaa,minor,6766.0,6766.0
Harjavalta,61.3167,22.1336,Finland,FI,Satakunta,minor,6753.0,6753.0
Vörå,63.1333,22.25,Finland,FI,Pohjanmaa,minor,6714.0,6714.0
Haapajärvi,63.75,25.3167,Finland,FI,Pohjois-Pohjanmaa,minor,6687.0,6687.0
Eno,62.8,30.15,Finland,FI,Pohjois-Karjala,,6653.0,6653.0
Vanaja,61.0036,24.4694,Finland,FI,Kanta-Häme,,6636.0,6636.0
Haapavesi,64.1417,25.3667,Finland,FI,Pohjois-Pohjanmaa,minor,6591.0,6591.0
Jokela,60.5528,24.9664,Finland,FI,Uusimaa,,6574.0,6574.0
Pälkäne,61.3383,24.2667,Finland,FI,Pirkanmaa,minor,6567.0,6567.0
Piikkiö,60.425,22.5167,Finland,FI,Varsinais-Suomi,,6505.0,6505.0
Iitti,60.8833,26.3333,Finland,FI,Päijät-Häme,minor,6504.0,6504.0
Nilsiä,63.205,28.0833,Finland,FI,Pohjois-Savo,,6499.0,6499.0
Kittilä,67.65,24.9083,Finland,FI,Lappi,minor,6421.0,6421.0
Viitasaari,63.075,25.8597,Finland,FI,Keski-Suomi,minor,6411.0,6411.0
Kronoby,63.725,23.0333,Finland,FI,Pohjanmaa,minor,6405.0,6405.0
Mänttä,62.0292,24.6236,Finland,FI,Pirkanmaa,minor,6341.0,6341.0
Kristinestad,62.2667,21.35,Finland,FI,Pohjanmaa,minor,6242.0,6242.0
Siuntio,60.1333,24.2167,Finland,FI,Uusimaa,minor,6182.0,6182.0
Mäntyharju,61.4167,26.8833,Finland,FI,Etelä-Savo,minor,6159.0,6159.0
Tammela,60.8,23.7667,Finland,FI,Kanta-Häme,minor,6155.0,6155.0
Pieksämäen Maalaiskunta,62.2833,27.0667,Finland,FI,Etelä-Savo,,6118.0,6118.0
Rusko,60.5417,22.225,Finland,FI,Varsinais-Suomi,minor,6110.0,6110.0
Noormarkku,61.5917,21.8667,Finland,FI,Satakunta,,6109.0,6109.0
Ähtäri,62.55,24.0667,Finland,FI,Etelä-Pohjanmaa,minor,6068.0,6068.0
Heinolan Maalaiskunta,61.25,26.0667,Finland,FI,Päijät-Häme,,6061.0,6061.0
Juva,61.9,27.85,Finland,FI,Etelä-Savo,minor,5932.0,5932.0
Loimaan Kunta,60.8667,22.9833,Finland,FI,Varsinais-Suomi,,5909.0,5909.0
Perniö,60.2042,23.1222,Finland,FI,Varsinais-Suomi,,5903.0,5903.0
Nakkila,61.3647,22.0056,Finland,FI,Satakunta,minor,5651.0,5651.0
Kerimäki,61.9167,29.2833,Finland,FI,Etelä-Savo,,5554.0,5554.0
Malax,62.9417,21.55,Finland,FI,Pohjanmaa,minor,5545.0,5545.0
Ylistaro,62.9403,22.5167,Finland,FI,Etelä-Pohjanmaa,,5543.0,5543.0
Kannus,63.9,23.9167,Finland,FI,Keski-Pohjanmaa,minor,5520.0,5520.0
Lammi,61.0792,25.0111,Finland,FI,Kanta-Häme,,5506.0,5506.0
Ingå,60.0456,24.0047,Finland,FI,Uusimaa,minor,5384.0,5384.0
Suolahti,62.5639,25.8528,Finland,FI,Keski-Suomi,,5364.0,5364.0
Vilppula,62.0222,24.5097,Finland,FI,Pirkanmaa,,5354.0,5354.0
Pyhäjärvi,63.6833,25.9833,Finland,FI,Pohjois-Pohjanmaa,,5337.0,5337.0
Pyhtää,60.5,26.55,Finland,FI,Kymenlaakso,,5321.0,5321.0
Ruokolahti,61.2917,28.8167,Finland,FI,Etelä-Karjala,minor,5312.0,5312.0
Kangasniemi,61.99,26.6417,Finland,FI,Etelä-Savo,minor,5296.0,5296.0
Teuva,62.4861,21.7472,Finland,FI,Etelä-Pohjanmaa,minor,5269.0,5269.0
Larsmo,63.75,22.75,Finland,FI,Pohjanmaa,minor,5264.0,5264.0
Parikkala,61.55,29.5,Finland,FI,Etelä-Karjala,minor,5235.0,5235.0
Oulujoki,65.0072,25.5636,Finland,FI,Pohjois-Pohjanmaa,,5230.0,5230.0
Viiala,61.2111,23.7667,Finland,FI,Pirkanmaa,,5207.0,5207.0
Pornainen,60.475,25.375,Finland,FI,Uusimaa,minor,5125.0,5125.0
Sievi,63.9,24.5167,Finland,FI,Pohjois-Pohjanmaa,minor,5124.0,5124.0
Jokioinen,60.8,23.4833,Finland,FI,Kanta-Häme,minor,5058.0,5058.0
Kellokoski,60.55,25.1,Finland,FI,Uusimaa,,5000.0,5000.0
Korpilahti,62.0167,25.5611,Finland,FI,Keski-Suomi,,4985.0,4985.0
Pojo,60.1,23.525,Finland,FI,Uusimaa,,4874.0,4874.0
Nousiainen,60.6,22.0833,Finland,FI,Varsinais-Suomi,minor,4859.0,4859.0
Ristiina,61.5083,27.2583,Finland,FI,Etelä-Savo,,4856.0,4856.0
Äetsä,61.2847,22.6972,Finland,FI,Pirkanmaa,,4837.0,4837.0
Urjala,61.0833,23.55,Finland,FI,Pirkanmaa,minor,4829.0,4829.0
Taipalsaari,61.1583,28.0667,Finland,FI,Etelä-Karjala,minor,4815.0,4815.0
Juankoski,63.0667,28.3333,Finland,FI,Pohjois-Savo,minor,4804.0,4804.0
Vähäkyrö,63.055,22.1083,Finland,FI,Pohjanmaa,,4775.0,4775.0
Askola,60.5283,25.6,Finland,FI,Uusimaa,minor,4763.0,4763.0
Tohmajärvi,62.2333,30.3333,Finland,FI,Pohjois-Karjala,minor,4738.0,4738.0
Joroinen,62.1833,27.8333,Finland,FI,Etelä-Savo,minor,4729.0,4729.0
Alahärmä,63.25,22.85,Finland,FI,Etelä-Pohjanmaa,,4717.0,4717.0
Jomala,60.15,19.95,Finland,FI,Åland,minor,4648.0,4648.0
Pielavesi,63.2333,26.7583,Finland,FI,Pohjois-Savo,minor,4624.0,4624.0
Ruovesi,61.9833,24.1167,Finland,FI,Pirkanmaa,minor,4623.0,4623.0
Hankasalmi,62.3833,26.4333,Finland,FI,Keski-Suomi,minor,4601.0,4601.0
Paavola,64.6083,25.2056,Finland,FI,Pohjois-Pohjanmaa,,4568.0,4568.0
Ilomantsi,62.6667,30.9333,Finland,FI,Pohjois-Karjala,minor,4492.0,4492.0
Vesilahti,61.3083,23.6167,Finland,FI,Pirkanmaa,minor,4489.0,4489.0
Ruukki,64.6639,25.1014,Finland,FI,Pohjois-Pohjanmaa,minor,4479.0,4479.0
Kälviä,63.8611,23.4528,Finland,FI,Keski-Pohjanmaa,,4475.0,4475.0
Sääksmäki,61.2,24.0667,Finland,FI,Pirkanmaa,,4467.0,4467.0
Polvijärvi,62.855,29.3667,Finland,FI,Pohjois-Karjala,minor,4414.0,4414.0
Isokyrö,63.0,22.3167,Finland,FI,Pohjanmaa,minor,4406.0,4406.0
Jurva,62.6861,21.9819,Finland,FI,Etelä-Pohjanmaa,,4368.0,4368.0
Juuka,63.2417,29.25,Finland,FI,Pohjois-Karjala,minor,4352.0,4352.0
Vanhakylä,61.4349,21.8969,Finland,FI,Satakunta,,4326.0,4326.0
Ylitornio,66.3167,23.6667,Finland,FI,Lappi,minor,4291.0,4291.0
Sonkajärvi,63.6667,27.5167,Finland,FI,Pohjois-Savo,minor,4278.0,4278.0
Taivalkoski,65.575,28.2417,Finland,FI,Pohjois-Pohjanmaa,minor,4199.0,4199.0
Kärkölä,60.8667,25.275,Finland,FI,Päijät-Häme,minor,4198.0,4198.0
Kaustinen,63.55,23.6917,Finland,FI,Keski-Pohjanmaa,minor,4198.0,4198.0
Joutsa,61.7417,26.1167,Finland,FI,Keski-Suomi,minor,4171.0,4171.0
Pihtipudas,63.3667,25.575,Finland,FI,Keski-Suomi,minor,4127.0,4127.0
Sysmä,61.5,25.6833,Finland,FI,Päijät-Häme,minor,4040.0,4040.0
Ranua,65.9333,26.5167,Finland,FI,Lappi,minor,4020.0,4020.0
Petäjävesi,62.2583,25.1833,Finland,FI,Keski-Suomi,minor,4008.0,4008.0
Tervakoski,60.814,24.626,Finland,FI,Kanta-Häme,,3972.0,3972.0
Aura,60.65,22.5833,Finland,FI,Varsinais-Suomi,minor,3961.0,3961.0
Hauho,61.1722,24.5625,Finland,FI,Kanta-Häme,,3907.0,3907.0
Simpele,61.4323,29.3728,Finland,FI,Etelä-Karjala,minor,3893.0,3893.0
Koria,60.8333,26.6,Finland,FI,Kymenlaakso,,3876.0,3876.0
Kolari,67.3306,23.7778,Finland,FI,Lappi,minor,3854.0,3854.0
Pernaja,60.45,26.0333,Finland,FI,Uusimaa,,3779.0,3779.0
Kausala,60.8862,26.3415,Finland,FI,Päijät-Häme,,3775.0,3775.0
Maaninka,63.1583,27.3,Finland,FI,Pohjois-Savo,minor,3773.0,3773.0
Vieremä,63.7417,27.0,Finland,FI,Pohjois-Savo,minor,3757.0,3757.0
Uurainen,62.5,25.4367,Finland,FI,Keski-Suomi,minor,3747.0,3747.0
Rantasalmi,62.0667,28.3,Finland,FI,Etelä-Savo,minor,3733.0,3733.0
Salla,66.8333,28.6667,Finland,FI,Lappi,minor,3727.0,3727.0
Punkaharju,61.75,29.4,Finland,FI,Etelä-Savo,,3715.0,3715.0
Muuruvesi,63.0153,28.2085,Finland,FI,Pohjois-Savo,,3708.0,3708.0
Karstula,62.875,24.8,Finland,FI,Keski-Suomi,minor,3665.0,3665.0
Pertteli,60.4472,23.2486,Finland,FI,Varsinais-Suomi,,3658.0,3658.0
Seinäjoki,62.5667,23.0667,Finland,FI,Etelä-Pohjanmaa,,3653.0,3653.0
Pello,66.775,23.9667,Finland,FI,Lappi,minor,3623.0,3623.0
Heinävesi,62.425,28.6333,Finland,FI,Etelä-Savo,minor,3574.0,3574.0
Paltamo,64.4083,27.8417,Finland,FI,Kainuu,minor,3488.0,3488.0
Savitaipale,61.2,27.6833,Finland,FI,Etelä-Karjala,minor,3480.0,3480.0
Posio,66.1083,28.1667,Finland,FI,Lappi,minor,3477.0,3477.0
Kuortane,62.8083,23.5083,Finland,FI,Etelä-Pohjanmaa,minor,3437.0,3437.0
Karttula,62.8967,26.9667,Finland,FI,Pohjois-Savo,,3437.0,3437.0
Vihti,60.4167,24.3167,Finland,FI,Uusimaa,,3417.0,3417.0
Kalvola,61.0917,24.1347,Finland,FI,Kanta-Häme,,3399.0,3399.0
Luvia,61.3611,21.625,Finland,FI,Satakunta,minor,3349.0,3349.0
Virolahti,60.5833,27.7,Finland,FI,Kymenlaakso,minor,3347.0,3347.0
Kiukainen,61.2069,22.0833,Finland,FI,Satakunta,,3338.0,3338.0
Dragsfjärd,60.0722,22.4694,Finland,FI,Varsinais-Suomi,,3332.0,3332.0
Toholampi,63.775,24.25,Finland,FI,Keski-Pohjanmaa,minor,3311.0,3311.0
Rautalampi,62.6217,26.8333,Finland,FI,Pohjois-Savo,minor,3303.0,3303.0
Veteli,63.475,23.7917,Finland,FI,Keski-Pohjanmaa,minor,3302.0,3302.0
Kimito,60.1639,22.7278,Finland,FI,Varsinais-Suomi,minor,3252.0,3252.0
Simo,65.6583,25.0667,Finland,FI,Lappi,minor,3238.0,3238.0
Lappi,61.1014,21.8444,Finland,FI,Satakunta,,3236.0,3236.0
Pyhäjoki,64.484,24.215,Finland,FI,Pohjois-Pohjanmaa,minor,3211.0,3211.0
Tervola,66.0889,24.8111,Finland,FI,Lappi,minor,3195.0,3195.0
Merikarvia,61.8583,21.5,Finland,FI,Satakunta,minor,3185.0,3185.0
Töysä,62.6333,23.8167,Finland,FI,Etelä-Pohjanmaa,,3156.0,3156.0
Padasjoki,61.35,25.275,Finland,FI,Päijät-Häme,minor,3143.0,3143.0
Lappajärvi,63.2167,23.6333,Finland,FI,Etelä-Pohjanmaa,minor,3140.0,3140.0
Uskela,60.3753,23.1306,Finland,FI,Varsinais-Suomi,,3105.0,3105.0
Maaria,60.5333,22.3333,Finland,FI,Varsinais-Suomi,,3076.0,3076.0
Lemi,61.0617,27.805,Finland,FI,Etelä-Karjala,minor,3073.0,3073.0
Vimpeli,63.1617,23.8167,Finland,FI,Etelä-Pohjanmaa,minor,3073.0,3073.0
Ivalo,68.65,27.55,Finland,FI,Lappi,minor,3062.0,3062.0
Vihanti,64.4833,25.0,Finland,FI,Pohjois-Pohjanmaa,,3059.0,3059.0
Punkalaidun,61.1117,23.105,Finland,FI,Pirkanmaa,minor,3049.0,3049.0
